~VERSION INFORMATION
 VERS.                 2.0:   CWLS LOG ASCII STANDARD -VERSION 2.0
 WRAP.                  NO:   ONE LINE PER DEPTH STEP
~WELL INFORMATION BLOCK
#MNEM.UNIT           DATA                    DESCRIPTION OF MNEMONIC
#---------    -------------------            -------------------------------
# Generated from Intellog Unique Number	CW_82_90/WELL/185
WELL.         01-11-082-23W4                 : Well_name    - WELL
LOC .         00/01-11-082-23W4/0            : Location     - LOCATION
UWI .         00/01-11-082-23W4/0            : Uwi          - UNIQUE WELL ID
ENTR.         JAYE                           : Entered      - ENTERED BY
SRVC.         SCHLUMBERGER                   : Scn          - SERVICE COMPANY
DATE.         31 JAN. 86                     : Date         - LOG DATE
STRT.M        225                            : top_depth    - START DEPTH
STOP.M        442                            : bot_depth    - STOP DEPTH
STEP.M        0.25                           : increment    - STEP LENGTH
 NULL. -999.2500:NULL Value
~CURVE INFORMATION BLOCK
#MNEM UNIT       ERCB CURVE CODE    CURVE DESCRIPTION
#-----------   ------------------   ----------------------------------
DEPT.M        00 001 00 00         : DEPTH        - DEPTH
GR  .API      00 310 00 00         : GR           - GAMMA RAY
CALI.MM       00 280 01 00         : CAL          - CALIPER
NPHI.V/V      00 330 00 00         : PHIN         - NEUTRON POROSITY (SANDSTONE)
DPHI.V/V      00 890 00 00         : PHID         - DENSITY POROSITY (SANDSTONE)
ILD .OHMM     00 120 00 00         : RESD         - DEEP RESISTIVITY (DIL)
~PARAMETER INFORMATION
#MNEM.UNIT           DATA             DESCRIPTION OF MNEMONIC
#---------         -----------     ------------------------------
GL  .M        611.1                : gl           - GROUND LEVEL ELEVATION
EREF.M        614.7                : kb           - ELEVATION OF DEPTH REFERENCE
DATM.M        611.1                : datum        - DATUM ELEVATION
TDD .M        443                  : tdd          - TOTAL DEPTH DRILLER
RUN .         ONE                  : Run          - RUN NUMBER
ENG .         BRADSHAW             : Engineer     - RECORDING ENGINEER
WIT .         KOSS                 : Witness      - WITNESSED BY
BASE.         SLAVE LAKE           : Branch       - HOME BASE OF LOGGING UNIT
MUD .         GEL CHEM             : Mud_type     - MUD TYPE
MATR.         SANDSTONE            : Logunit      - NEUTRON MATRIX
TMAX.C        22                   : BHT          - MAXIMUM RECORDED TEMPERATURE
BHTD.M        443                  : BHTDEP       - MAXIMUM RECORDED TEMPERATURE
RMT .C        22                   : MDTP         - TEMPERATURE OF MUD
MUDD.KG/M     0                    : MWT          - MUD DENSITY
NEUT.         1                    : NEUTRON      - NEUTRON TYPE
RESI.         0                    : RESIST       - RESISTIVITY TYPE
RM  .OHMM     6.75                 : RM           - RESISTIVITY OF MUD
RMC .OHMM     5.483                : RMC          - RESISTIVITY OF MUD CAKE
RMF .OHMM     6.16                 : RMF          - RESISTIVITY OF MUD FILTRATE
SUFT.C        4                    : SUFT         - SURFACE TEMPERATURE
~A  DEPTH       GR      CAL     PHIN     PHID     RESD
  225.000   76.341  272.906    0.000    0.305    3.269
  225.250   78.050  274.819    0.497    0.301    3.124
  225.500   83.001  279.018    0.563    0.318    2.986
  225.750   80.224  280.416    0.570    0.326    2.881
  226.000   80.567  276.520    0.596    0.314    2.897
  226.250   81.220  277.600    0.611    0.310    2.935
  226.500   80.873  279.208    0.614    0.296    3.018
  226.750   80.774  279.249    0.605    0.294    3.104
  227.000   80.989  280.136    0.582    0.296    3.121
  227.250   80.897  281.532    0.560    0.301    3.167
  227.500   80.797  281.782    0.569    0.305    3.173
  227.750   80.821  281.219    0.584    0.307    3.178
  228.000   80.225  279.487    0.580    0.297    3.220
  228.250   82.878  277.244    0.555    0.279    3.268
  228.500   85.141  276.666    0.541    0.271    3.323
  228.750   87.851  275.680    0.530    0.273    3.380
  229.000   86.070  276.983    0.528    0.266    3.456
  229.250   86.788  276.713    0.546    0.270    3.508
  229.500   85.068  274.880    0.563    0.278    3.534
  229.750   83.287  272.961    0.578    0.287    3.580
  230.000   82.192  271.973    0.569    0.296    3.647
  230.250   85.588  268.791    0.546    0.300    3.716
  230.500   92.220  265.096    0.527    0.269    3.764
  230.750   92.996  253.099    0.530    0.233    3.864
  231.000   92.401  249.514    0.537    0.231    3.944
  231.250   93.052  248.931    0.528    0.244    4.095
  231.500   92.581  248.347    0.509    0.256    4.251
  231.750   86.375  247.575    0.508    0.255    4.496
  232.000   76.745  248.341    0.496    0.255    5.042
  232.250   67.736  248.911    0.478    0.246    6.060
  232.500   64.461  248.430    0.473    0.247    7.325
  232.750   56.387  247.760    0.476    0.259    9.582
  233.000   47.566  246.659    0.469    0.283   12.747
  233.250   44.852  245.870    0.441    0.317   15.938
  233.500   46.314  244.471    0.458    0.334   20.536
  233.750   45.283  244.307    0.472    0.339   27.838
  234.000   41.633  243.839    0.461    0.337   33.968
  234.250   41.036  243.465    0.430    0.331   35.730
  234.500   44.742  244.027    0.441    0.329   36.470
  234.750   47.760  244.382    0.449    0.329   36.947
  235.000   46.667  244.225    0.444    0.335   38.790
  235.250   46.571  243.544    0.494    0.337   41.033
  235.500   48.093  243.480    0.500    0.327   44.478
  235.750   47.873  243.534    0.477    0.329   45.145
  236.000   48.523  244.098    0.483    0.337   44.969
  236.250   50.482  244.866    0.508    0.347   43.548
  236.500   50.635  245.743    0.560    0.351   40.694
  236.750   49.544  246.835    0.497    0.366   39.705
  237.000   48.385  247.709    0.475    0.381   39.623
  237.250   46.293  247.753    0.484    0.372   41.757
  237.500   51.431  247.180    0.466    0.370   46.209
  237.750   46.974  246.703    0.457    0.360   52.796
  238.000   42.452  246.026    0.476    0.350   60.434
  238.250   42.479  244.409    0.511    0.343   66.500
  238.500   49.050  243.003    0.515    0.352   69.036
  238.750   45.839  243.777    0.515    0.335   69.415
  239.000   43.376  244.335    0.518    0.325   68.881
  239.250   44.896  244.916    0.504    0.344   67.590
  239.500   50.345  244.853    0.470    0.359   66.823
  239.750   49.873  245.310    0.445    0.363   66.062
  240.000   48.720  245.775    0.429    0.360   64.094
  240.250   46.378  245.932    0.442    0.361   65.057
  240.500   41.547  245.966    0.478    0.363   70.123
  240.750   41.200  245.703    0.500    0.350   76.296
  241.000   45.651  245.544    0.499    0.330   80.558
  241.250   46.052  246.010    0.488    0.317   82.226
  241.500   46.518  246.055    0.487    0.324   85.523
  241.750   48.663  246.307    0.459    0.346   89.116
  242.000   51.496  247.072    0.452    0.356   87.774
  242.250   49.404  248.274    0.462    0.363   85.803
  242.500   47.251  248.726    0.480    0.365   89.409
  242.750   46.468  248.563    0.476    0.364   96.554
  243.000   44.505  247.687    0.466    0.362  100.991
  243.250   43.783  246.993    0.470    0.365  102.891
  243.500   44.686  246.522    0.490    0.367  105.418
  243.750   45.270  246.467    0.514    0.362  107.804
  244.000   45.863  246.308    0.529    0.351  111.074
  244.250   47.760  246.347    0.524    0.350  111.478
  244.500   47.972  247.538    0.507    0.352  109.385
  244.750   49.370  249.982    0.490    0.354  106.128
  245.000   47.032  251.477    0.473    0.355  100.863
  245.250   45.126  252.867    0.472    0.357   93.896
  245.500   46.961  250.941    0.471    0.355   87.577
  245.750   50.107  248.711    0.461    0.353   79.862
  246.000   49.883  249.067    0.466    0.353   72.826
  246.250   43.056  249.067    0.501    0.344   67.289
  246.500   41.277  251.055    0.509    0.332   64.796
  246.750   44.669  251.383    0.520    0.336   64.665
  247.000   43.888  252.781    0.535    0.349   65.142
  247.250   42.917  254.484    0.545    0.361   65.377
  247.500   39.831  256.617    0.523    0.365   66.355
  247.750   38.050  257.697    0.493    0.359   67.731
  248.000   40.757  259.622    0.476    0.358   70.445
  248.250   40.037  261.440    0.482    0.361   74.940
  248.500   39.195  262.413    0.498    0.370   80.928
  248.750   39.097  262.139    0.501    0.372   85.127
  249.000   38.128  262.602    0.481    0.371   89.206
  249.250   38.096  263.824    0.471    0.363   91.396
  249.500   40.053  263.837    0.488    0.361   91.554
  249.750   40.079  263.368    0.487    0.363   89.329
  250.000   38.989  263.306    0.466    0.360   85.056
  250.250   40.637  262.520    0.443    0.353   81.141
  250.500   40.537  262.357    0.463    0.341   76.972
  250.750   39.443  260.019    0.473    0.328   71.790
  251.000   38.910  258.610    0.470    0.325   67.972
  251.250   39.876  257.307    0.468    0.340   66.697
  251.500   42.643  257.770    0.492    0.357   68.851
  251.750   44.415  258.232    0.494    0.367   80.912
  252.000   43.447  257.961    0.479    0.355   90.214
  252.250   45.968  256.457    0.465    0.346   78.344
  252.500   43.625  255.358    0.458    0.343   47.342
  252.750   49.949  253.121    0.470    0.344   28.662
  253.000   48.978  250.881    0.479    0.343   21.297
  253.250   42.650  250.200    0.429    0.338   16.094
  253.500   37.069  251.910    0.311    0.318   14.403
  253.750   33.108  253.410    0.318    0.249   13.060
  254.000   41.052  252.723    0.429    0.250   11.754
  254.250   55.101  249.342    0.489    0.261    9.576
  254.500   67.528  249.806    0.476    0.283    7.360
  254.750   77.154  254.941    0.437    0.289    6.075
  255.000   76.059  253.848    0.447    0.280    5.286
  255.250   76.586  251.294    0.443    0.273    5.080
  255.500   73.934  253.312    0.423    0.273    5.264
  255.750   71.845  250.980    0.416    0.280    5.760
  256.000   68.382  247.901    0.450    0.287    6.422
  256.250   63.611  244.628    0.476    0.290    7.647
  256.500   59.963  243.539    0.508    0.305    9.965
  256.750   56.750  242.954    0.513    0.351   12.023
  257.000   53.848  242.896    0.485    0.360   13.107
  257.250   55.685  243.364    0.427    0.336   13.917
  257.500   55.648  243.609    0.411    0.330   15.781
  257.750   53.746  244.075    0.424    0.335   17.962
  258.000   53.958  244.328    0.446    0.334   19.803
  258.250   52.306  243.755    0.446    0.342   20.636
  258.500   51.148  243.695    0.473    0.348   21.381
  258.750   51.487  243.951    0.489    0.344   21.702
  259.000   53.387  244.198    0.495    0.345   21.215
  259.250   53.475  243.830    0.488    0.347   20.506
  259.500   52.443  242.116    0.484    0.351   19.971
  259.750   52.159  240.809    0.495    0.352   19.123
  260.000   52.999  239.927    0.476    0.351   18.589
  260.250   55.081  239.757    0.461    0.350   17.699
  260.500   55.361  238.349    0.457    0.350   17.076
  260.750   54.203  241.614    0.465    0.347   16.290
  261.000   53.546  243.531    0.461    0.342   15.511
  261.250   50.270  245.136    0.441    0.341   14.797
