~VERSION INFORMATION
 VERS.                 2.0:   CWLS LOG ASCII STANDARD -VERSION 2.0
 WRAP.                  NO:   ONE LINE PER DEPTH STEP
~WELL INFORMATION BLOCK
#MNEM.UNIT           DATA                    DESCRIPTION OF MNEMONIC
#---------    -------------------            -------------------------------
# Generated from Intellog Unique Number	CW_82_90/WELL/185
WELL.         01-11-082-23W4                 : Well_name    - WELL
LOC .         00/01-11-082-23W4/0            : Location     - LOCATION
UWI .         00/01-11-082-23W4/0            : Uwi          - UNIQUE WELL ID
ENTR.         JAYE                           : Entered      - ENTERED BY
SRVC.         SCHLUMBERGER                   : Scn          - SERVICE COMPANY
DATE.         31 JAN. 86                     : Date         - LOG DATE
STRT.M        225                            : top_depth    - START DEPTH
STOP.M        442                            : bot_depth    - STOP DEPTH
STEP.M        0.25                           : increment    - STEP LENGTH
 NULL. -999.2500:NULL Value
~CURVE INFORMATION BLOCK
#MNEM UNIT       ERCB CURVE CODE    CURVE DESCRIPTION
#-----------   ------------------   ----------------------------------
DEPT.M        00 001 00 00         : DEPTH        - DEPTH
GR  .API      00 310 00 00         : GR           - GAMMA RAY
CALI.MM       00 280 01 00         : CAL          - CALIPER
NPHI.V/V      00 330 00 00         : PHIN         - NEUTRON POROSITY (SANDSTONE)
DPHI.V/V      00 890 00 00         : PHID         - DENSITY POROSITY (SANDSTONE)
ILD .OHMM     00 120 00 00         : RESD         - DEEP RESISTIVITY (DIL)
~PARAMETER INFORMATION
#MNEM.UNIT           DATA             DESCRIPTION OF MNEMONIC
#---------         -----------     ------------------------------
GL  .M        611.1                : gl           - GROUND LEVEL ELEVATION
EREF.M        614.7                : kb           - ELEVATION OF DEPTH REFERENCE
DATM.M        611.1                : datum        - DATUM ELEVATION
TDD .M        443                  : tdd          - TOTAL DEPTH DRILLER
RUN .         ONE                  : Run          - RUN NUMBER
ENG .         BRADSHAW             : Engineer     - RECORDING ENGINEER
WIT .         KOSS                 : Witness      - WITNESSED BY
BASE.         SLAVE LAKE           : Branch       - HOME BASE OF LOGGING UNIT
MUD .         GEL CHEM             : Mud_type     - MUD TYPE
MATR.         SANDSTONE            : Logunit      - NEUTRON MATRIX
TMAX.C        22                   : BHT          - MAXIMUM RECORDED TEMPERATURE
BHTD.M        443                  : BHTDEP       - MAXIMUM RECORDED TEMPERATURE
RMT .C        22                   : MDTP         - TEMPERATURE OF MUD
MUDD.KG/M     0                    : MWT          - MUD DENSITY
NEUT.         1                    : NEUTRON      - NEUTRON TYPE
RESI.         0                    : RESIST       - RESISTIVITY TYPE
RM  .OHMM     6.75                 : RM           - RESISTIVITY OF MUD
RMC .OHMM     5.483                : RMC          - RESISTIVITY OF MUD CAKE
RMF .OHMM     6.16                 : RMF          - RESISTIVITY OF MUD FILTRATE
SUFT.C        4                    : SUFT         - SURFACE TEMPERATURE
~A  DEPTH       GR      CAL     PHIN     PHID     RESD
# ...
  298.000   60.277  245.721    0.470    0.348    9.190
  298.250   61.548  244.722    0.478    0.345    8.443
  298.500   62.388  243.206    0.474    0.342    7.714
  298.750   62.230  241.279    0.526    0.331    7.359
  299.000   61.134  239.872    0.525    0.317    7.399
  299.250   61.164  241.791    0.492    0.318    7.871
  299.500   62.123  242.775    0.513    0.329    8.942
  299.750   62.155  241.780    0.522    0.338   10.198
  300.000   58.379  242.964    0.445    0.316   11.477
  300.250   49.058  244.988    0.268    0.269   12.117
  300.500   46.159  246.172    0.260    0.107   11.980
  300.750   57.775  247.680    0.417    0.194   10.945
  301.000   70.516  248.343    0.459    0.247    9.888
  301.250   70.545  248.918    0.494    0.276    8.025
  301.500   68.827  249.270    0.515    0.275    7.223
  301.750   69.233  249.936    0.515    0.273    6.890
  302.000   72.311  250.295    0.501    0.267    6.954
  302.250   74.772  250.865    0.490    0.266    7.032
  302.500   76.045  251.755    0.497    0.266    6.797
  302.750   79.065  251.579    0.479    0.265    6.423
  303.000   81.333  250.481    0.488    0.271    6.532
  303.250   71.452  248.144    0.515    0.291    7.120
  303.500   59.888  246.219    0.530    0.313    8.478
  303.750   49.883  244.491    0.493    0.334    9.926
  304.000   45.050  242.157    0.483    0.349   11.753
  304.250   47.076  241.779    0.488    0.350   13.428
  304.500   50.716  241.939    0.500    0.344   14.285
  304.750   48.188  241.156    0.498    0.338   14.941
  305.000   49.399  240.264    0.467    0.332   15.366
  305.250   49.865  238.753    0.461    0.330   15.625
  305.500   48.832  237.444    0.496    0.339   15.447
  305.750   48.048  235.409    0.527    0.348   15.129
  306.000   47.708  233.066    0.501    0.349   15.127
  306.250   49.725  232.388    0.477    0.341   15.382
  306.500   50.191  235.030    0.466    0.339   16.487
  306.750   47.973  238.715    0.449    0.347   18.244
  307.000   45.321  242.400    0.435    0.345   20.265
  307.250   43.918  245.140    0.437    0.337   22.133
  307.500   46.065  245.502    0.467    0.342   23.064
  307.750   46.840  242.222    0.485    0.354   23.409
  308.000   46.368  241.960    0.499    0.363   22.164
  308.250   45.836  242.623    0.516    0.365   19.212
  308.500   45.923  245.059    0.524    0.358   16.936
  308.750   47.510  246.560    0.531    0.347   15.561
  309.000   51.278  246.503    0.500    0.332   14.514
  309.250   53.423  246.250    0.486    0.315   13.923
  309.500   50.835  246.703    0.436    0.285   13.817
  309.750   47.435  247.367    0.242    0.245   14.452
  310.000   43.164  248.659    0.192    0.088   15.088
  310.250   40.636  249.432    0.194   -0.009   15.871
  310.500   40.849  247.511    0.256   -0.042   16.260
  310.750   47.109  244.853    0.315    0.154   16.350
  311.000   53.806  240.745    0.455    0.236   16.286
  311.250   53.709  238.510    0.451    0.310   15.683
  311.500   53.300  236.789    0.451    0.333   14.491
  311.750   58.687  235.694    0.462    0.339   13.668
  312.000   59.773  235.849    0.487    0.345   13.261
  312.250   56.811  236.102    0.500    0.339   13.159
  312.500   55.468  236.769    0.508    0.337   13.133
  312.750   54.437  238.576    0.488    0.344   13.057
  313.000   56.021  241.743    0.475    0.344   13.031
  313.250   57.607  245.526    0.463    0.343   13.029
  313.500   57.386  246.204    0.470    0.344   13.002
  313.750   55.857  245.739    0.498    0.345   13.000
  314.000   54.575  245.457    0.505    0.343   13.071
  314.250   54.853  244.261    0.467    0.340   13.020
  314.500   55.006  242.223    0.476    0.341   13.166
  314.750   57.588  240.931    0.494    0.344   13.413
  315.000   57.865  240.868    0.485    0.344   13.361
  315.250   57.144  240.612    0.472    0.339   12.963
  315.500   58.108  240.546    0.460    0.339   12.767
  315.750   56.578  240.591    0.463    0.340   12.789
  316.000   57.727  240.224    0.491    0.341   12.812
  316.250   57.567  239.015    0.491    0.335   12.930
  316.500   56.410  240.204    0.474    0.332   12.953
  316.750   55.316  238.696    0.473    0.336   12.951
  317.000   55.159  238.848    0.489    0.336   12.827
  317.250   58.113  239.825    0.480    0.342   12.801
  317.500   61.695  239.976    0.487    0.351   12.727
  317.750   62.158  238.884    0.501    0.348   12.630
  318.000   60.254  238.721    0.521    0.347   12.534
  318.250   60.843  238.662    0.529    0.343   12.344
  318.500   61.059  238.705    0.498    0.340   12.181
  318.750   60.713  238.342    0.480    0.340   11.997
  319.000   62.609  237.455    0.468    0.341   11.772
  319.250   63.633  236.675    0.470    0.349   11.683
  319.500   63.288  236.297    0.481    0.354   11.528
  319.750   65.122  235.510    0.475    0.355   11.312
  320.000   65.712  235.037    0.465    0.360   11.141
  320.250   62.810  234.879    0.471    0.351   10.912
  320.500   60.532  231.807    0.500    0.343   10.707
  320.750   62.493  233.308    0.517    0.339   10.545
  321.000   61.895  237.716    0.531    0.343   10.425
  321.250   59.245  238.080    0.511    0.353   10.326
  321.500   56.966  238.544    0.510    0.354   10.286
  321.750   57.930  238.482    0.506    0.353   10.439
  322.000   59.265  237.694    0.496    0.353   10.478
  322.250   58.795  237.220    0.492    0.355   10.694
  322.500   59.882  235.506    0.502    0.356   10.875
  322.750   60.283  234.721    0.508    0.355   10.792
  323.000   64.548  234.877    0.515    0.354   10.142
  323.250   72.615  235.965    0.531    0.349    9.283
  323.500   80.058  237.771    0.509    0.308    8.292
  323.750   79.403  240.302    0.486    0.283    6.961
  324.000   79.366  245.957    0.476    0.273    6.742
  324.250   79.456  251.308    0.485    0.276    6.615
  324.500   81.729  254.370    0.498    0.276    6.727
  324.750   80.449  255.444    0.481    0.272    6.892
  325.000   80.479  255.077    0.483    0.261    7.035
  325.250   80.253  254.294    0.508    0.261    6.994
  325.500   80.343  253.612    0.522    0.259    6.773
  325.750   79.252  252.720    0.523    0.252    6.329
  326.000   72.547  250.178    0.532    0.243    5.948
  326.250   68.400  247.415    0.528    0.239    5.516
  326.500   70.608  242.166    0.499    0.240    4.799
  326.750   80.793  238.053    0.498    0.251    4.014
  327.000   87.117  236.964    0.499    0.262    3.633
  327.250   76.985  238.773    0.502    0.266    3.694
  327.500   73.836  241.104    0.486    0.250    3.990
  327.750   68.566  243.436    0.467    0.226    4.432
  328.000   69.966  245.252    0.478    0.196    5.025
  328.250   72.486  246.849    0.505    0.201    6.075
  328.500   68.900  248.351    0.505    0.269    7.274
  328.750   64.130  248.917    0.508    0.295    8.694
  329.000   58.985  248.449    0.494    0.303   10.314
  329.250   56.645  247.035    0.465    0.292   11.392
  329.500   60.536  245.939    0.454    0.281   12.005
  329.750   71.530  245.464    0.462    0.257   12.026
  330.000   76.919  245.513    0.468    0.237   11.196
  330.250   78.754  244.942    0.457    0.220    9.053
  330.500   78.844  244.257    0.454    0.218    8.571
  330.750   76.627  244.196    0.459    0.265    8.634
  331.000   74.411  243.832    0.464    0.266    8.846
  331.250   74.876  243.459    0.472    0.264    9.149
  331.500   73.407  242.988    0.475    0.268    9.321
  331.750   73.684  242.616    0.479    0.268    9.320
  332.000   76.082  242.763    0.489    0.261    9.179
  332.250   78.477  243.852    0.496    0.251    9.092
  332.500   79.564  244.624    0.482    0.250    8.904
  332.750   77.846  243.948    0.467    0.249    8.754
  333.000   78.435  242.537    0.462    0.245    8.573
  333.250   81.516  241.853    0.464    0.243    8.428
  333.500   82.791  242.214    0.472    0.244    8.364
  333.750   81.509  242.474    0.475    0.252    8.394
  334.000   79.418  242.519    0.470    0.255    8.520
  334.250   78.075  242.356    0.477    0.255    8.566
