~VERSION INFORMATION
 VERS.                 2.0:   CWLS LOG ASCII STANDARD -VERSION 2.0
 WRAP.                  NO:   ONE LINE PER DEPTH STEP
~WELL INFORMATION BLOCK
#MNEM.UNIT           DATA                    DESCRIPTION OF MNEMONIC
#---------    -------------------            -------------------------------
# Generated from Intellog Unique Number	CW_82_90/WELL/185
WELL.         01-11-082-23W4                 : Well_name    - WELL
LOC .         00/01-11-082-23W4/0            : Location     - LOCATION
UWI .         00/01-11-082-23W4/0            : Uwi          - UNIQUE WELL ID
ENTR.         JAYE                           : Entered      - ENTERED BY
SRVC.         SCHLUMBERGER                   : Scn          - SERVICE COMPANY
DATE.         31 JAN. 86                     : Date         - LOG DATE
STRT.M        225                            : top_depth    - START DEPTH
STOP.M        442                            : bot_depth    - STOP DEPTH
STEP.M        0.25                           : increment    - STEP LENGTH
 NULL. -999.2500:NULL Value
~CURVE INFORMATION BLOCK
#MNEM UNIT       ERCB CURVE CODE    CURVE DESCRIPTION
#-----------   ------------------   ----------------------------------
DEPT.M        00 001 00 00         : DEPTH        - DEPTH
GR  .API      00 310 00 00         : GR           - GAMMA RAY
CALI.MM       00 280 01 00         : CAL          - CALIPER
NPHI.V/V      00 330 00 00         : PHIN         - NEUTRON POROSITY (SANDSTONE)
DPHI.V/V      00 890 00 00         : PHID         - DENSITY POROSITY (SANDSTONE)
ILD .OHMM     00 120 00 00         : RESD         - DEEP RESISTIVITY (DIL)
~PARAMETER INFORMATION
#MNEM.UNIT           DATA             DESCRIPTION OF MNEMONIC
#---------         -----------     ------------------------------
GL  .M        611.1                : gl           - GROUND LEVEL ELEVATION
EREF.M        614.7                : kb           - ELEVATION OF DEPTH REFERENCE
DATM.M        611.1                : datum        - DATUM ELEVATION
TDD .M        443                  : tdd          - TOTAL DEPTH DRILLER
RUN .         ONE                  : Run          - RUN NUMBER
ENG .         BRADSHAW             : Engineer     - RECORDING ENGINEER
WIT .         KOSS                 : Witness      - WITNESSED BY
BASE.         SLAVE LAKE           : Branch       - HOME BASE OF LOGGING UNIT
MUD .         GEL CHEM             : Mud_type     - MUD TYPE
MATR.         SANDSTONE            : Logunit      - NEUTRON MATRIX
TMAX.C        22                   : BHT          - MAXIMUM RECORDED TEMPERATURE
BHTD.M        443                  : BHTDEP       - MAXIMUM RECORDED TEMPERATURE
RMT .C        22                   : MDTP         - TEMPERATURE OF MUD
MUDD.KG/M     0                    : MWT          - MUD DENSITY
NEUT.         1                    : NEUTRON      - NEUTRON TYPE
RESI.         0                    : RESIST       - RESISTIVITY TYPE
RM  .OHMM     6.75                 : RM           - RESISTIVITY OF MUD
RMC .OHMM     5.483                : RMC          - RESISTIVITY OF MUD CAKE
RMF .OHMM     6.16                 : RMF          - RESISTIVITY OF MUD FILTRATE
SUFT.C        4                    : SUFT         - SURFACE TEMPERATURE
~A  DEPTH       GR      CAL     PHIN     PHID     RESD
# ...
  407.500   77.430  250.728    0.369    0.127   19.110
  407.750   78.953  250.878    0.355    0.117   19.506
  408.000   79.232  251.553    0.355    0.129   19.650
  408.250   80.442  251.906    0.371    0.148   19.281
  408.500   83.149  251.845    0.376    0.152   18.637
  408.750   82.056  251.591    0.367    0.144   18.082
  409.000   82.520  251.636    0.364    0.142   17.511
  409.250   82.610  251.779    0.398    0.177   16.957
  409.500   82.140  252.137    0.416    0.175   16.608
  409.750   82.229  252.287    0.415    0.174   16.327
  410.000   80.451  252.957    0.419    0.175   15.114
  410.250   83.904  253.734    0.434    0.167   14.418
  410.500   86.800  254.812    0.442    0.155   13.832
  410.750   90.507  256.940    0.434    0.188   13.345
  411.000   91.590  256.884    0.433    0.192   13.021
  411.250   89.188  255.888    0.425    0.161   12.728
  411.500   88.287  253.549    0.403    0.132   12.584
  411.750   89.249  253.799    0.379    0.090   12.605
  412.000   93.262  254.572    0.361    0.103   12.556
  412.250   96.591  255.765    0.403    0.128   12.483
  412.500   99.112  256.954    0.411    0.177   12.529
  412.750   96.522  257.833    0.394    0.169   12.386
  413.000   97.236  257.773    0.387    0.134   12.154
  413.250   99.446  255.638    0.398    0.123   11.594
  413.500  100.345  256.309    0.391    0.171   11.312
  413.750   99.686  257.082    0.365    0.170   11.163
  414.000  101.770  255.682    0.377    0.159   10.892
  414.250  105.225  256.551    0.433    0.156   10.748
  414.500  105.941  258.470    0.434    0.172   10.666
  414.750  105.718  259.547    0.422    0.168   10.584
  415.000  106.556  261.153    0.398    0.172   10.424
  415.250  106.772  262.343    0.392    0.190   10.384
  415.500  104.928  271.010    0.448    0.205   10.266
  415.750  100.472  275.314    0.420    0.182   10.557
  416.000   83.734  264.349    0.354    0.113   11.661
  416.250   82.329  254.009    0.326    0.081   13.223
  416.500   90.145  253.229    0.340    0.085   15.511
  416.750   98.276  253.478    0.382    0.162   18.434
  417.000  102.168  253.741    0.395    0.190   19.611
  417.250   97.522  254.198    0.392    0.197   19.979
  417.500   95.055  253.203    0.397    0.195   19.752
  417.750   80.999  251.176    0.400    0.220   19.823
  418.000   54.168  248.622    0.396    0.244   23.917
  418.250   44.725  246.381    0.392    0.284   28.694
  418.500   39.395  242.170    0.393    0.310   45.546
  418.750   36.180  235.987    0.410    0.315   55.784
  419.000   34.464  241.020    0.425    0.320   76.189
  419.250   33.991  246.153    0.422    0.310   80.441
  419.500   36.699  251.390    0.409    0.300   78.339
  419.750   45.203  253.208    0.406    0.297   74.455
  420.000   49.093  253.663    0.411    0.292   67.261
  420.250   50.991  254.028    0.444    0.286   60.761
  420.500   51.767  254.280    0.455    0.315   54.172
  420.750   54.723  252.869    0.440    0.299   45.651
  421.000   61.356  250.733    0.417    0.281   40.094
  421.250   69.611  249.021    0.372    0.257   35.082
  421.500   82.352  247.505    0.334    0.196   26.511
  421.750   87.177  249.423    0.326    0.156   18.102
  422.000   87.457  252.168    0.339    0.157   14.747
  422.250   86.237  254.393    0.360    0.155   13.074
  422.500   81.344  255.273    0.360    0.162   12.286
  422.750   78.627  255.429    0.346    0.159   12.101
  423.000   86.319  254.330    0.327    0.151   11.851
  423.250  104.855  253.757    0.415    0.154   11.412
  423.500  111.427  252.449    0.410    0.175    9.193
  423.750   83.100  250.933    0.394    0.186    8.181
  424.000   71.474  249.319    0.367    0.190    9.435
  424.250   65.644  249.365    0.305    0.144   11.534
  424.500   63.180  249.620    0.282    0.098   16.143
  424.750   74.299  249.667    0.306    0.095   23.724
  425.000   92.523  249.712    0.340    0.094   25.909
  425.250  100.781  250.171    0.364    0.104   25.233
  425.500  101.742  249.802    0.408    0.136   22.540
  425.750  103.204  248.186    0.423    0.172   16.874
  426.000  105.599  248.443    0.418    0.189   12.444
  426.250  104.630  246.833    0.409    0.211   10.766
  426.500   65.710  245.422    0.394    0.233   10.784
  426.750   63.555  244.112    0.388    0.254   13.741
  427.000   63.461  244.889    0.398    0.258   20.615
  427.250   65.355  246.599    0.395    0.253   27.788
  427.500   68.936  247.691    0.387    0.248   34.550
  427.750   68.401  248.248    0.365    0.234   37.101
  428.000   63.758  249.334    0.345    0.175   37.657
  428.250   65.216  249.794    0.321    0.147   36.535
  428.500   77.457  250.357    0.401    0.164   34.140
  428.750   84.841  250.934    0.406    0.179   29.096
  429.000   87.984  251.490    0.419    0.184   23.395
  429.250   86.331  251.017    0.418    0.194   18.704
  429.500   81.682  249.296    0.402    0.239   18.772
  429.750   63.575  246.449    0.402    0.280   23.961
  430.000   63.291  245.653    0.402    0.305   27.480
  430.250   69.488  244.871    0.391    0.283   27.891
  430.500   76.189  245.019    0.385    0.217   26.757
  430.750   67.799  245.061    0.391    0.218   22.129
  431.000   58.107  245.635    0.427    0.222   15.367
  431.250   65.425  245.469    0.460    0.199   11.767
  431.500   77.294  246.241    0.460    0.206    9.786
  431.750   83.552  246.702    0.441    0.209    8.435
  432.000   82.147  247.481    0.439    0.207    7.563
  432.250   76.939  248.041    0.464    0.178    7.001
  432.500   72.607  248.296    0.450    0.155    6.831
  432.750   74.629  248.963    0.414    0.153    7.025
  433.000   81.016  248.808    0.434    0.162    7.487
  433.250   84.529  248.643    0.418    0.168    8.162
  433.500   84.682  248.586    0.406    0.167    8.426
  433.750   81.599  248.326    0.497    0.224    8.314
  434.000   79.191  248.685    0.545    0.248    8.097
  434.250   74.856  248.413    0.588    0.325    7.768
  434.500   75.448  246.697    0.552    0.314    7.313
  434.750   80.335  245.284    0.520    0.298    7.163
  435.000   83.980  246.478    0.526    0.291    7.352
  435.250   89.487  248.090    0.544    0.270    7.242
  435.500   95.436  248.438    0.555    0.219    7.013
  435.750  102.382  248.589    0.527    0.188    6.804
  436.000  100.788  248.120    0.503    0.172    6.829
  436.250   95.456  247.536    0.495    0.158    7.075
  436.500   90.874  248.309    0.485    0.222    7.277
  436.750   91.088  250.968    0.487    0.237    7.554
  437.000   94.545  252.249    0.494    0.217    7.711
  437.250   94.448  247.720    0.512    0.207    7.709
  437.500   91.357  244.342    0.511    0.196    7.536
  437.750   83.909  242.624    0.506    0.215    7.592
  438.000   75.087  241.941    0.497    0.243    8.260
  438.250   67.388  242.402    0.502    0.251    9.297
  438.500   63.303  242.867    0.530    0.258   10.905
  438.750   58.594  243.745    0.518    0.278   11.977
  439.000   57.377  244.411    0.496    0.293   12.789
  439.250   57.279  245.508    0.469    0.302   12.957
  439.500   56.683  245.645    0.464    0.256   13.052
  439.750   54.094  246.008    0.465    0.171   12.977
  440.000   52.814  245.434    0.468    0.148   12.877
  440.250   53.715  244.128    0.468    0.162   12.755
  440.500   53.868  241.678    0.469    0.167   12.705
  440.750   45.043  237.265    0.472    0.139   12.513
  441.000   40.211  232.836    0.476    0.151   12.488
  441.250   41.796  226.862    0.482    0.205   12.416
  441.500   44.317  220.986    0.489    0.210   12.461
  441.750   44.409  215.009    0.496    0.216   12.482
  442.000   44.248  209.656    0.502    0.235   12.410
