~VERSION INFORMATION
 VERS.                 2.0:   CWLS LOG ASCII STANDARD -VERSION 2.0
 WRAP.                  NO:   ONE LINE PER DEPTH STEP
~WELL INFORMATION BLOCK
#MNEM.UNIT           DATA                    DESCRIPTION OF MNEMONIC
#---------    -------------------            -------------------------------
# Generated from Intellog Unique Number	CW_82_90/WELL/185
WELL.         01-11-082-23W4                 : Well_name    - WELL
LOC .         00/01-11-082-23W4/0            : Location     - LOCATION
UWI .         00/01-11-082-23W4/0            : Uwi          - UNIQUE WELL ID
ENTR.         JAYE                           : Entered      - ENTERED BY
SRVC.         SCHLUMBERGER                   : Scn          - SERVICE COMPANY
DATE.         31 JAN. 86                     : Date         - LOG DATE
STRT.M        225                            : top_depth    - START DEPTH
STOP.M        442                            : bot_depth    - STOP DEPTH
STEP.M        0.25                           : increment    - STEP LENGTH
 NULL. -999.2500:NULL Value
~CURVE INFORMATION BLOCK
#MNEM UNIT       ERCB CURVE CODE    CURVE DESCRIPTION
#-----------   ------------------   ----------------------------------
DEPT.M        00 001 00 00         : DEPTH        - DEPTH
GR  .API      00 310 00 00         : GR           - GAMMA RAY
CALI.MM       00 280 01 00         : CAL          - CALIPER
NPHI.V/V      00 330 00 00         : PHIN         - NEUTRON POROSITY (SANDSTONE)
DPHI.V/V      00 890 00 00         : PHID         - DENSITY POROSITY (SANDSTONE)
ILD .OHMM     00 120 00 00         : RESD         - DEEP RESISTIVITY (DIL)
~PARAMETER INFORMATION
#MNEM.UNIT           DATA             DESCRIPTION OF MNEMONIC
#---------         -----------     ------------------------------
GL  .M        611.1                : gl           - GROUND LEVEL ELEVATION
EREF.M        614.7                : kb           - ELEVATION OF DEPTH REFERENCE
DATM.M        611.1                : datum        - DATUM ELEVATION
TDD .M        443                  : tdd          - TOTAL DEPTH DRILLER
RUN .         ONE                  : Run          - RUN NUMBER
ENG .         BRADSHAW             : Engineer     - RECORDING ENGINEER
WIT .         KOSS                 : Witness      - WITNESSED BY
BASE.         SLAVE LAKE           : Branch       - HOME BASE OF LOGGING UNIT
MUD .         GEL CHEM             : Mud_type     - MUD TYPE
MATR.         SANDSTONE            : Logunit      - NEUTRON MATRIX
TMAX.C        22                   : BHT          - MAXIMUM RECORDED TEMPERATURE
BHTD.M        443                  : BHTDEP       - MAXIMUM RECORDED TEMPERATURE
RMT .C        22                   : MDTP         - TEMPERATURE OF MUD
MUDD.KG/M     0                    : MWT          - MUD DENSITY
NEUT.         1                    : NEUTRON      - NEUTRON TYPE
RESI.         0                    : RESIST       - RESISTIVITY TYPE
RM  .OHMM     6.75                 : RM           - RESISTIVITY OF MUD
RMC .OHMM     5.483                : RMC          - RESISTIVITY OF MUD CAKE
RMF .OHMM     6.16                 : RMF          - RESISTIVITY OF MUD FILTRATE
SUFT.C        4                    : SUFT         - SURFACE TEMPERATURE
~A  DEPTH       GR      CAL     PHIN     PHID     RESD
# ...
  334.500   80.224  243.123    0.483    0.257    8.728
  334.750   79.876  246.294    0.479    0.258    8.825
  335.000   78.097  248.412    0.469    0.258    8.974
  335.250   75.445  250.331    0.462    0.253    9.177
  335.500   73.727  249.956    0.454    0.246    9.350
  335.750   73.007  247.510    0.439    0.245    9.454
  336.000   73.035  244.961    0.424    0.255    9.417
  336.250   77.738  244.383    0.444    0.263    9.276
  336.500   78.138  245.474    0.457    0.260    9.016
  336.750   73.741  247.488    0.448    0.254    8.797
  337.000   67.164  249.199    0.440    0.254    8.730
  337.250   59.902  247.893    0.433    0.307    8.712
  337.500   57.810  245.240    0.459    0.306    8.793
  337.750   59.270  243.840    0.484    0.270    9.128
  338.000   58.802  243.361    0.474    0.258    9.584
  338.250   60.324  242.677    0.459    0.273    9.949
  338.500   62.221  242.002    0.444    0.288   10.387
  338.750   61.252  241.005    0.448    0.257   10.602
  339.000   59.723  239.701    0.464    0.247   10.944
  339.250   58.751  237.980    0.476    0.282   11.088
  339.500   58.783  238.443    0.466    0.302   11.211
  339.750   59.243  241.507    0.458    0.293   11.316
  340.000   60.269  241.340    0.473    0.285   10.999
  340.250   62.789  239.106    0.472    0.283   10.473
  340.500   66.122  238.843    0.462    0.273   10.219
  340.750   62.908  239.617    0.448    0.268   10.198
  341.000   59.569  240.486    0.438    0.298   10.177
  341.250   61.157  241.468    0.454    0.304   10.214
  341.500   63.303  241.824    0.471    0.275   10.328
  341.750   64.767  242.914    0.432    0.238   10.522
  342.000   64.356  243.788    0.430    0.202   10.761
  342.250   63.949  243.624    0.443    0.198   10.963
  342.500   65.157  243.155    0.439    0.213   10.737
  342.750   72.228  242.999    0.453    0.230   10.185
  343.000   76.992  242.523    0.497    0.270    9.047
  343.250   73.779  242.368    0.520    0.278    8.234
  343.500   69.445  242.409    0.446    0.263    7.752
  343.750   68.475  242.658    0.377    0.178    7.607
  344.000   70.310  242.503    0.352    0.121    7.677
  344.250   74.762  241.821    0.369    0.205    8.625
  344.500   76.537  240.103    0.474    0.250    9.490
  344.750   73.574  238.592    0.474    0.270   10.172
  345.000   72.664  238.015    0.459    0.259   10.018
  345.250   73.129  237.540    0.459    0.237    8.882
  345.500   73.094  237.797    0.520    0.248    7.904
  345.750   70.193  237.944    0.528    0.316    7.442
  346.000   68.662  238.196    0.505    0.329    7.247
  346.250   68.316  239.069    0.489    0.332    7.638
  346.500   67.098  240.571    0.501    0.326    8.612
  346.750   69.556  242.798    0.519    0.319    9.693
  347.000   70.333  245.128    0.500    0.315   10.526
  347.250   70.859  247.359    0.485    0.312   11.093
  347.500   71.448  248.234    0.484    0.307   10.703
  347.750   68.361  248.176    0.486    0.294    7.804
  348.000   65.582  247.496    0.489    0.257    7.170
  348.250   61.995  247.442    0.491    0.227    6.892
  348.500   63.397  248.007    0.480    0.245    6.762
  348.750   66.226  248.155    0.476    0.265    6.673
  349.000   67.003  248.413    0.487    0.268    6.622
  349.250   68.338  248.978    0.510    0.260    6.621
  349.500   70.797  249.126    0.505    0.261    6.632
  349.750   73.379  249.065    0.476    0.267    6.669
  350.000   75.091  248.807    0.486    0.270    6.794
  350.250   74.618  248.430    0.482    0.269    6.844
  350.500   74.897  248.687    0.467    0.265    6.843
  350.750   74.985  248.942    0.485    0.260    6.842
  351.000   74.826  248.880    0.523    0.244    6.880
  351.250   76.101  248.831    0.517    0.233    6.943
  351.500   78.125  248.878    0.485    0.228    7.021
  351.750   76.969  249.022    0.469    0.215    7.113
  352.000   75.311  249.696    0.470    0.195    7.112
  352.250   77.334  250.150    0.482    0.193    7.084
  352.500   79.979  249.990    0.463    0.239    7.096
  352.750   79.136  249.309    0.449    0.234    7.162
  353.000   80.533  249.366    0.450    0.223    7.014
  353.250   82.555  249.922    0.469    0.234    7.106
  353.500   82.395  250.392    0.461    0.255    7.105
  353.750   82.861  250.639    0.473    0.259    7.117
  354.000   80.958  250.788    0.465    0.255    7.050
  354.250   80.798  251.355    0.455    0.255    6.969
  354.500   81.323  251.294    0.450    0.254    6.981
  354.750   81.041  250.926    0.449    0.241    7.046
  355.000   81.565  248.583    0.445    0.233    7.246
  355.250   81.843  245.617    0.449    0.224    7.438
  355.500   80.251  239.639    0.457    0.224    7.854
  355.750   76.663  240.519    0.466    0.238    8.230
  356.000   72.891  244.622    0.465    0.289    8.921
  356.250   69.802  246.427    0.460    0.300    9.227
  356.500   68.833  247.094    0.467    0.299    8.918
  356.750   67.552  246.938    0.491    0.286    8.381
  357.000   62.158  246.567    0.480    0.282    8.223
  357.250   59.446  245.886    0.459    0.272    8.731
  357.500   59.723  245.208    0.439    0.255    9.219
  357.750   58.317  245.147    0.420    0.237   10.318
  358.000   57.224  245.305    0.432    0.212   11.700
  358.250   56.690  245.765    0.425    0.186   14.010
  358.500   57.592  245.812    0.414    0.178   15.947
  358.750   58.301  245.858    0.420    0.222   18.118
  359.000   61.946  245.793    0.511    0.317   16.521
  359.250   61.661  245.745    0.535    0.320   15.094
  359.500   63.495  245.481    0.486    0.307   14.318
  359.750   67.573  245.109    0.442    0.291   13.659
  360.000   70.781  243.595    0.459    0.288   12.884
  360.250   67.380  241.662    0.482    0.286   12.017
  360.500   67.471  242.124    0.499    0.279   11.250
  360.750   71.672  243.105    0.494    0.270   10.732
  361.000   72.199  243.672    0.473    0.264   10.257
  361.250   67.429  243.930    0.448    0.257   10.027
  361.500   68.703  244.078    0.467    0.255    9.821
  361.750   72.968  244.538    0.488    0.254    9.727
  362.000   77.671  244.998    0.478    0.252    9.653
  362.250   74.584  245.893    0.459    0.251    9.633
  362.500   69.438  246.441    0.446    0.252    9.632
  362.750   68.219  246.800    0.438    0.252    9.757
  363.000   69.559  247.159    0.474    0.258    9.885
  363.250   72.824  247.618    0.502    0.260    9.977
  363.500   77.214  248.806    0.497    0.257   10.088
  363.750   80.421  249.269    0.482    0.256   10.125
  364.000   78.205  247.450    0.471    0.256    9.604
  364.250   79.105  241.888    0.493    0.250    9.025
  364.500   78.949  242.451    0.485    0.242    9.007
  364.750   78.723  245.829    0.462    0.235    8.989
  365.000   77.382  247.844    0.446    0.230    8.970
  365.250   75.291  249.133    0.456    0.228    8.885
  365.500   74.134  249.598    0.464    0.219    8.784
  365.750   75.969  249.852    0.450    0.218    8.717
  366.000   81.418  250.103    0.458    0.229    8.505
  366.250   86.498  249.944    0.447    0.239    8.345
  366.500   87.330  249.991    0.444    0.244    8.112
  366.750   87.552  250.241    0.474    0.246    7.709
  367.000   88.135  250.399    0.485    0.246    7.466
  367.250   86.731  250.441    0.467    0.243    7.149
  367.500   83.953  250.171    0.451    0.241    7.055
  367.750   80.864  249.910    0.462    0.242    7.040
  368.000   78.460  249.024    0.454    0.240    7.336
  368.250   68.209  248.240    0.446    0.242    7.893
  368.500   66.742  247.972    0.470    0.257    8.636
  368.750   70.825  248.744    0.465    0.267    9.593
  369.000   73.586  248.893    0.452    0.274   10.736
  369.250   74.055  249.253    0.425    0.282   12.243
  369.500   69.471  249.613    0.410    0.280   14.497
  369.750   66.442  249.761    0.399    0.250   15.833
  370.000   62.607  248.980    0.368    0.167   16.375
  370.250   59.582  247.876    0.341    0.123   16.526
  370.500   58.362  247.202    0.313    0.111   16.648
  370.750   60.699  247.036    0.360    0.124   16.961
