~VERSION INFORMATION
 VERS.                 2.0:   CWLS LOG ASCII STANDARD -VERSION 2.0
 WRAP.                  NO:   ONE LINE PER DEPTH STEP
~WELL INFORMATION BLOCK
#MNEM.UNIT           DATA                    DESCRIPTION OF MNEMONIC
#---------    -------------------            -------------------------------
# Generated from Intellog Unique Number	CW_82_90/WELL/185
WELL.         01-11-082-23W4                 : Well_name    - WELL
LOC .         00/01-11-082-23W4/0            : Location     - LOCATION
UWI .         00/01-11-082-23W4/0            : Uwi          - UNIQUE WELL ID
ENTR.         JAYE                           : Entered      - ENTERED BY
SRVC.         SCHLUMBERGER                   : Scn          - SERVICE COMPANY
DATE.         31 JAN. 86                     : Date         - LOG DATE
STRT.M        225                            : top_depth    - START DEPTH
STOP.M        442                            : bot_depth    - STOP DEPTH
STEP.M        0.25                           : increment    - STEP LENGTH
 NULL. -999.2500:NULL Value
~CURVE INFORMATION BLOCK
#MNEM UNIT       ERCB CURVE CODE    CURVE DESCRIPTION
#-----------   ------------------   ----------------------------------
DEPT.M        00 001 00 00         : DEPTH        - DEPTH
GR  .API      00 310 00 00         : GR           - GAMMA RAY
CALI.MM       00 280 01 00         : CAL          - CALIPER
NPHI.V/V      00 330 00 00         : PHIN         - NEUTRON POROSITY (SANDSTONE)
DPHI.V/V      00 890 00 00         : PHID         - DENSITY POROSITY (SANDSTONE)
ILD .OHMM     00 120 00 00         : RESD         - DEEP RESISTIVITY (DIL)
~PARAMETER INFORMATION
#MNEM.UNIT           DATA             DESCRIPTION OF MNEMONIC
#---------         -----------     ------------------------------
GL  .M        611.1                : gl           - GROUND LEVEL ELEVATION
EREF.M        614.7                : kb           - ELEVATION OF DEPTH REFERENCE
DATM.M        611.1                : datum        - DATUM ELEVATION
TDD .M        443                  : tdd          - TOTAL DEPTH DRILLER
RUN .         ONE                  : Run          - RUN NUMBER
ENG .         BRADSHAW             : Engineer     - RECORDING ENGINEER
WIT .         KOSS                 : Witness      - WITNESSED BY
BASE.         SLAVE LAKE           : Branch       - HOME BASE OF LOGGING UNIT
MUD .         GEL CHEM             : Mud_type     - MUD TYPE
MATR.         SANDSTONE            : Logunit      - NEUTRON MATRIX
TMAX.C        22                   : BHT          - MAXIMUM RECORDED TEMPERATURE
BHTD.M        443                  : BHTDEP       - MAXIMUM RECORDED TEMPERATURE
RMT .C        22                   : MDTP         - TEMPERATURE OF MUD
MUDD.KG/M     0                    : MWT          - MUD DENSITY
NEUT.         1                    : NEUTRON      - NEUTRON TYPE
RESI.         0                    : RESIST       - RESISTIVITY TYPE
RM  .OHMM     6.75                 : RM           - RESISTIVITY OF MUD
RMC .OHMM     5.483                : RMC          - RESISTIVITY OF MUD CAKE
RMF .OHMM     6.16                 : RMF          - RESISTIVITY OF MUD FILTRATE
SUFT.C        4                    : SUFT         - SURFACE TEMPERATURE
~A  DEPTH       GR      CAL     PHIN     PHID     RESD
# ...
  371.000   64.214  247.296    0.367    0.134   17.411
  371.250   62.808  247.758    0.342    0.108   17.973
  371.500   61.404  248.321    0.326    0.058   18.208
  371.750   64.051  248.993    0.377    0.073   17.501
  372.000   72.239  249.764    0.406    0.129   15.810
  372.250   75.819  250.846    0.409    0.183   14.282
  372.500   73.539  251.200    0.383    0.188   13.753
  372.750   74.255  250.323    0.378    0.186   13.244
  373.000   76.275  249.637    0.418    0.169   12.898
  373.250   75.618  249.063    0.426    0.202   12.680
  373.500   69.230  247.753    0.406    0.203   12.488
  373.750   68.756  245.201    0.373    0.161   12.771
  374.000   70.847  241.612    0.383    0.136   14.293
  374.250   72.737  238.854    0.454    0.182   15.639
  374.500   75.820  237.243    0.454    0.246   15.784
  374.750   76.844  237.596    0.441    0.224   15.605
  375.000   74.067  240.663    0.421    0.205   15.169
  375.250   72.599  243.615    0.379    0.184   14.884
  375.500   74.687  246.879    0.370    0.163   14.743
  375.750   78.950  249.316    0.423    0.122   14.851
  376.000   83.717  249.877    0.452    0.201   14.766
  376.250   83.991  248.680    0.443    0.202   14.272
  376.500   83.456  244.990    0.442    0.203   13.337
  376.750   83.609  244.417    0.436    0.210   12.795
  377.000   84.759  243.936    0.423    0.209   12.205
  377.250   86.157  244.402    0.434    0.208   11.622
  377.500   86.312  245.179    0.450    0.211   11.045
  377.750   82.974  246.054    0.436    0.212   11.189
  378.000   79.572  247.658    0.418    0.204   11.357
  378.250   79.792  248.851    0.423    0.181   12.219
  378.500   81.624  249.517    0.446    0.161   13.320
  378.750   81.026  250.597    0.451    0.187   13.802
  379.000   81.871  251.687    0.444    0.205   13.567
  379.250   82.769  252.347    0.447    0.207   12.211
  379.500   81.795  252.712    0.482    0.202   11.583
  379.750   81.327  252.757    0.474    0.194   11.323
  380.000   83.098  251.454    0.461    0.190   11.110
  380.250   84.687  249.322    0.435    0.175   11.026
  380.500   85.647  249.056    0.417    0.158   11.003
  380.750   86.360  249.625    0.428    0.159   11.022
  381.000   85.765  250.915    0.443    0.174   11.020
  381.250   84.483  252.001    0.455    0.172   11.080
  381.500   83.951  252.457    0.450    0.166   11.100
  381.750   84.040  253.125    0.430    0.190   11.015
  382.000   85.252  253.482    0.435    0.205   11.013
  382.250   88.522  254.155    0.450    0.195   11.012
  382.500   78.763  254.617    0.449    0.176   10.969
  382.750   77.173  254.970    0.420    0.156   10.864
  383.000   82.683  254.401    0.417    0.205   10.862
  383.250   84.269  254.335    0.434    0.215   10.902
  383.500   83.053  253.769    0.457    0.210   11.023
  383.750   82.269  252.985    0.438    0.193   11.379
  384.000   76.564  252.609    0.408    0.173   11.925
  384.250   75.968  252.346    0.383    0.139   12.662
  384.500   79.363  252.284    0.386    0.160   12.997
  384.750   82.878  252.436    0.406    0.200   12.995
  385.000   91.696  252.899    0.429    0.202   12.235
  385.250   93.219  252.743    0.417    0.188   11.606
  385.500   91.374  251.542    0.415    0.181   11.050
  385.750   91.593  250.750    0.463    0.181   10.782
  386.000   92.117  249.756    0.463    0.203   10.700
  386.250   93.704  249.912    0.441    0.212   10.698
  386.500   93.543  252.344    0.421    0.208   10.697
  386.750   91.392  253.113    0.411    0.201   10.735
  387.000   91.358  253.057    0.411    0.196   10.774
  387.250   92.004  251.237    0.428    0.202   10.833
  387.500   91.845  247.336    0.473    0.198   11.037
  387.750   90.757  244.995    0.469    0.184   11.118
  388.000   90.967  250.757    0.452    0.174   11.137
  388.250   91.620  253.186    0.452    0.179   11.135
  388.500   92.830  252.093    0.445    0.184   11.197
  388.750   93.610  250.579    0.423    0.181   11.237
  389.000   92.328  248.544    0.417    0.178   11.257
  389.250   92.104  245.377    0.425    0.191   11.275
  389.500   92.567  245.004    0.445    0.191   11.253
  389.750   92.843  246.090    0.452    0.182   11.314
  390.000   92.501  245.306    0.446    0.171   11.312
  390.250   90.780  243.286    0.463    0.162   11.289
  390.500   88.128  247.599    0.462    0.167   11.266
  390.750   88.970  249.397    0.461    0.194   11.244
  391.000   91.362  254.629    0.443    0.198   11.244
  391.250   92.265  257.584    0.414    0.175   11.030
  391.500   90.549  254.202    0.403    0.149   10.885
  391.750   92.943  251.339    0.406    0.137   10.228
  392.000   97.891  251.513    0.421    0.189    9.887
  392.250   99.294  251.965    0.407    0.204    8.949
  392.500   97.454  252.317    0.407    0.193    8.748
  392.750   97.418  252.053    0.435    0.188    8.648
  393.000   94.579  252.092    0.432    0.188    8.647
  393.250   88.933  250.371    0.425    0.176    9.533
  393.500   84.349  248.864    0.416    0.228   10.994
  393.750   85.935  244.963    0.419    0.238   13.018
  394.000   84.346  240.544    0.410    0.241   14.762
  394.250   83.248  240.290    0.402    0.232   17.186
  394.500   80.036  240.947    0.378    0.180   20.007
  394.750   80.067  243.185    0.384    0.162   22.688
  395.000   78.784  245.103    0.404    0.173   26.413
  395.250   73.263  246.485    0.392    0.181   30.462
  395.500   67.371  250.167    0.377    0.167   34.478
  395.750   64.223  251.157    0.367    0.160   38.805
  396.000   65.249  251.296    0.356    0.153   42.381
  396.250   65.525  251.872    0.348    0.135   46.548
  396.500   63.682  251.909    0.339    0.107   52.290
  396.750   63.150  252.065    0.305    0.097   55.627
  397.000   64.490  252.104    0.286    0.092   55.304
  397.250   65.576  251.426    0.334    0.093   51.776
  397.500   66.783  251.478    0.406    0.141   45.389
  397.750   68.126  251.950    0.427    0.184   33.661
  398.000   68.149  252.299    0.395    0.177   28.206
  398.250   69.486  252.556    0.380    0.159   26.858
  398.500   72.504  252.487    0.373    0.138   25.478
  398.750   75.089  252.220    0.380    0.142   24.350
  399.000   74.430  252.058    0.399    0.173   23.537
  399.250   75.270  252.001    0.420    0.219   22.623
  399.500   77.231  252.257    0.435    0.236   21.785
  399.750   79.561  252.615    0.445    0.247   21.296
  400.000   77.162  252.669    0.447    0.256   21.173
  400.250   75.130  252.706    0.442    0.260   21.248
  400.500   72.413  252.759    0.436    0.241   21.286
  400.750   69.140  252.490    0.427    0.226   21.282
  401.000   70.912  252.118    0.425    0.210   21.279
  401.250   70.941  251.958    0.437    0.228   21.275
  401.500   70.718  251.902    0.435    0.225   21.392
  401.750   67.133  250.810    0.388    0.144   22.250
  402.000   62.237  247.006    0.347    0.115   25.421
  402.250   59.777  245.600    0.319    0.082   29.153
  402.500   58.241  246.069    0.298    0.060   31.779
  402.750   59.457  246.522    0.306    0.085   32.195
  403.000   65.090  247.399    0.340    0.135   30.369
  403.250   71.538  249.326    0.350    0.152   26.522
  403.500   71.939  250.505    0.353    0.154   25.158
  403.750   70.791  251.701    0.357    0.151   24.456
  404.000   71.185  251.117    0.370    0.152   23.772
  404.250   72.207  251.377    0.410    0.170   22.978
  404.500   74.420  251.316    0.426    0.196   21.756
  404.750   77.187  251.574    0.411    0.206   20.407
  405.000   80.337  252.252    0.407    0.197   18.962
  405.250   82.485  252.599    0.409    0.193   16.251
  405.500   83.440  252.951    0.404    0.196   14.904
  405.750   81.164  253.310    0.420    0.184   14.985
  406.000   79.262  252.737    0.410    0.178   15.469
  406.250   78.980  252.267    0.397    0.169   16.119
  406.500   78.694  251.683    0.397    0.157   16.734
  406.750   78.720  251.627    0.413    0.152   17.242
  407.000   78.995  251.679    0.429    0.157   17.865
  407.250   77.403  250.991    0.392    0.146   18.408
