~VERSION INFORMATION
 VERS.                 2.0:   CWLS LOG ASCII STANDARD -VERSION 2.0
 WRAP.                  NO:   ONE LINE PER DEPTH STEP
~WELL INFORMATION BLOCK
#MNEM.UNIT           DATA                    DESCRIPTION OF MNEMONIC
#---------    -------------------            -------------------------------
# Generated from Intellog Unique Number	CW_82_90/WELL/185
WELL.         01-11-082-23W4                 : Well_name    - WELL
LOC .         00/01-11-082-23W4/0            : Location     - LOCATION
UWI .         00/01-11-082-23W4/0            : Uwi          - UNIQUE WELL ID
ENTR.         JAYE                           : Entered      - ENTERED BY
SRVC.         SCHLUMBERGER                   : Scn          - SERVICE COMPANY
DATE.         31 JAN. 86                     : Date         - LOG DATE
STRT.M        225                            : top_depth    - START DEPTH
STOP.M        442                            : bot_depth    - STOP DEPTH
STEP.M        0.25                           : increment    - STEP LENGTH
 NULL. -999.2500:NULL Value
~CURVE INFORMATION BLOCK
#MNEM UNIT       ERCB CURVE CODE    CURVE DESCRIPTION
#-----------   ------------------   ----------------------------------
DEPT.M        00 001 00 00         : DEPTH        - DEPTH
GR  .API      00 310 00 00         : GR           - GAMMA RAY
CALI.MM       00 280 01 00         : CAL          - CALIPER
NPHI.V/V      00 330 00 00         : PHIN         - NEUTRON POROSITY (SANDSTONE)
DPHI.V/V      00 890 00 00         : PHID         - DENSITY POROSITY (SANDSTONE)
ILD .OHMM     00 120 00 00         : RESD         - DEEP RESISTIVITY (DIL)
~PARAMETER INFORMATION
#MNEM.UNIT           DATA             DESCRIPTION OF MNEMONIC
#---------         -----------     ------------------------------
GL  .M        611.1                : gl           - GROUND LEVEL ELEVATION
EREF.M        614.7                : kb           - ELEVATION OF DEPTH REFERENCE
DATM.M        611.1                : datum        - DATUM ELEVATION
TDD .M        443                  : tdd          - TOTAL DEPTH DRILLER
RUN .         ONE                  : Run          - RUN NUMBER
ENG .         BRADSHAW             : Engineer     - RECORDING ENGINEER
WIT .         KOSS                 : Witness      - WITNESSED BY
BASE.         SLAVE LAKE           : Branch       - HOME BASE OF LOGGING UNIT
MUD .         GEL CHEM             : Mud_type     - MUD TYPE
MATR.         SANDSTONE            : Logunit      - NEUTRON MATRIX
TMAX.C        22                   : BHT          - MAXIMUM RECORDED TEMPERATURE
BHTD.M        443                  : BHTDEP       - MAXIMUM RECORDED TEMPERATURE
RMT .C        22                   : MDTP         - TEMPERATURE OF MUD
MUDD.KG/M     0                    : MWT          - MUD DENSITY
NEUT.         1                    : NEUTRON      - NEUTRON TYPE
RESI.         0                    : RESIST       - RESISTIVITY TYPE
RM  .OHMM     6.75                 : RM           - RESISTIVITY OF MUD
RMC .OHMM     5.483                : RMC          - RESISTIVITY OF MUD CAKE
RMF .OHMM     6.16                 : RMF          - RESISTIVITY OF MUD FILTRATE
SUFT.C        4                    : SUFT         - SURFACE TEMPERATURE
~A  DEPTH       GR      CAL     PHIN     PHID     RESD
# ...
  261.500   49.114  246.115    0.438    0.344   14.410
  261.750   52.322  246.175    0.459    0.351   14.462
  262.000   52.471  246.008    0.477    0.355   14.569
  262.250   54.005  245.321    0.464    0.352   14.135
  262.500   54.647  245.799    0.452    0.346   13.159
  262.750   53.117  246.257    0.455    0.335   12.624
  263.000   52.708  246.194    0.448    0.323   12.294
  263.250   54.667  245.923    0.448    0.319   12.178
  263.500   55.070  245.659    0.452    0.336   12.062
  263.750   55.222  246.017    0.462    0.351   12.197
  264.000   54.939  246.494    0.478    0.359   12.520
  264.250   54.092  246.638    0.487    0.362   13.046
  264.500   53.560  246.777    0.480    0.366   13.217
  264.750   55.338  247.347    0.465    0.358   13.567
  265.000   57.854  248.137    0.468    0.353   13.979
  265.250   60.562  248.071    0.481    0.359   14.376
  265.500   60.654  247.690    0.464    0.360   14.482
  265.750   57.001  247.114    0.448    0.355   14.183
  266.000   56.281  247.053    0.463    0.357   14.128
  266.250   54.127  247.514    0.478    0.360   14.020
  266.500   54.094  247.774    0.488    0.362   14.230
  266.750   51.130  248.344    0.437    0.358   14.470
  267.000   43.368  248.596    0.243    0.281   15.744
  267.250   36.917  249.157    0.181    0.082   19.283
  267.500   36.071  249.314    0.182    0.032   27.760
  267.750   38.965  248.729    0.188    0.043   37.068
  268.000   40.674  247.638    0.202    0.059   38.123
  268.250   40.390  247.589    0.204    0.068   37.196
  268.500   40.854  247.727    0.212    0.074   35.618
  268.750   43.128  248.607    0.241    0.086   32.663
  269.000   44.089  248.855    0.336    0.172   28.365
  269.250   44.927  247.033    0.412    0.294   25.006
  269.500   45.142  244.283    0.451    0.344   20.681
  269.750   46.540  243.493    0.479    0.347   18.095
  270.000   49.248  243.435    0.450    0.343   17.230
  270.250   47.343  243.173    0.423    0.346   17.066
  270.500   42.201  243.426    0.422    0.351   17.062
  270.750   39.734  243.788    0.442    0.355   17.028
  271.000   40.077  244.242    0.448    0.359   17.154
  271.250   42.034  246.055    0.454    0.360   17.346
  271.500   43.431  246.106    0.468    0.362   17.441
  271.750   42.649  245.955    0.473    0.363   17.735
  272.000   40.810  245.985    0.468    0.364   17.666
  272.250   40.464  246.446    0.460    0.359   17.663
  272.500   42.798  246.505    0.450    0.358   17.660
  272.750   43.013  246.435    0.460    0.361   17.624
  273.000   43.349  246.486    0.466    0.363   17.622
  273.250   46.061  246.629    0.460    0.361   17.752
  273.500   48.020  246.577    0.460    0.358   17.681
  273.750   48.918  246.415    0.464    0.359   17.350
  274.000   47.325  246.768    0.462    0.359   16.993
  274.250   46.169  247.236    0.479    0.359   16.831
  274.500   46.883  247.598    0.477    0.361   16.797
  274.750   49.218  247.739    0.482    0.356   16.668
  275.000   50.302  247.687    0.486    0.351   16.823
  275.250   48.837  247.415    0.465    0.352   17.497
  275.500   49.238  246.529    0.474    0.352   18.301
  275.750   48.330  246.579    0.458    0.354   18.856
  276.000   46.363  247.145    0.446    0.365   19.067
  276.250   44.585  247.607    0.470    0.369   19.245
  276.500   45.116  247.962    0.464    0.370   19.278
  276.750   47.941  249.053    0.471    0.373   19.347
  277.000   49.091  249.825    0.462    0.375   19.344
  277.250   46.191  250.177    0.452    0.376   19.341
  277.500   45.844  250.221    0.437    0.376   19.410
  277.750   44.065  250.163    0.431    0.372   19.591
  278.000   42.846  249.808    0.440    0.365   19.698
  278.250   41.939  249.027    0.466    0.336   20.069
  278.500   39.786  248.754    0.480    0.328   20.523
  278.750   39.380  248.377    0.484    0.357   20.870
  279.000   40.905  247.387    0.463    0.375   21.143
  279.250   42.364  246.291    0.444    0.369   21.379
  279.500   42.327  244.891    0.445    0.367   21.375
  279.750   41.797  242.123    0.459    0.365   21.332
  280.000   40.453  239.780    0.458    0.366   21.409
  280.250   39.735  245.538    0.468    0.368   21.486
  280.500   41.316  249.328    0.478    0.372   21.522
  280.750   43.403  249.892    0.480    0.371   21.520
  281.000   43.119  247.548    0.479    0.375   21.637
  281.250   42.525  244.904    0.467    0.367   21.634
  281.500   44.731  243.177    0.450    0.357   21.630
  281.750   46.255  241.142    0.452    0.352   21.628
  282.000   48.030  239.846    0.444    0.351   21.583
  282.250   49.052  240.510    0.434    0.352   21.579
  282.500   47.086  241.491    0.428    0.360   21.496
  282.750   44.001  243.409    0.463    0.370   21.492
  283.000   41.594  245.114    0.506    0.375   21.570
  283.250   40.066  244.337    0.483    0.370   21.566
  283.500   39.656  242.925    0.460    0.359   21.482
  283.750   40.931  242.661    0.417    0.359   21.318
  284.000   41.085  243.126    0.417    0.371   21.194
  284.250   40.924  244.204    0.422    0.374   21.310
  284.500   40.828  244.773    0.445    0.371   21.267
  284.750   38.676  244.721    0.439    0.370   21.303
  285.000   38.204  245.068    0.432    0.379   21.140
  285.250   39.602  244.802    0.462    0.382   21.058
  285.500   41.062  244.856    0.467    0.383   20.976
  285.750   43.022  244.898    0.457    0.381   20.737
  286.000   43.672  244.952    0.445    0.379   20.502
  286.250   41.085  244.372    0.444    0.370   20.154
  286.500   38.929  243.479    0.481    0.357   20.380
  286.750   40.706  243.003    0.501    0.348   20.530
  287.000   41.789  241.805    0.458    0.345   20.488
  287.250   40.136  239.982    0.437    0.378   20.447
  287.500   40.100  238.159    0.465    0.379   20.252
  287.750   40.440  236.336    0.482    0.381   20.059
  288.000   41.406  235.340    0.484    0.379   19.944
  288.250   41.244  237.161    0.494    0.380   19.680
  288.500   43.763  240.212    0.500    0.383   19.530
  288.750   44.414  243.687    0.487    0.378   19.271
  289.000   40.703  245.914    0.437    0.371   18.981
  289.250   41.855  247.522    0.422    0.365   18.836
  289.500   44.061  250.994    0.436    0.374   18.692
  289.750   40.167  256.958    0.462    0.388   18.584
  290.000   37.761  275.805    0.483    0.395   18.372
  290.250   37.293  291.324    0.520    0.396   18.130
  290.500   38.380  301.759    0.533    0.392   17.589
  290.750   40.899  311.778    0.504    0.387   17.227
  291.000   41.610  313.898    0.521    0.384   16.872
  291.250   39.648  317.062    0.549    0.385   16.649
  291.500   39.734  318.561    0.533    0.389   16.460
  291.750   43.627  309.364    0.488    0.399   16.426
  292.000   47.269  296.224    0.467    0.400   16.641
  292.250   47.733  284.012    0.480    0.400   16.795
  292.500   46.390  248.432    0.496    0.421   16.793
  292.750   45.733  236.636    0.494    0.402   16.539
  293.000   48.004  235.336    0.487    0.386   16.382
  293.250   49.714  236.417    0.510    0.383   16.075
  293.500   49.369  236.465    0.528    0.386   15.714
  293.750   46.840  236.306    0.515    0.385   15.332
  294.000   46.558  239.880    0.507    0.380   15.101
  294.250   47.275  244.600    0.495    0.374   14.929
  294.500   49.728  245.581    0.486    0.355   14.485
  294.750   48.448  246.156    0.456    0.330   13.975
  295.000   47.480  246.607    0.436    0.365   13.406
  295.250   46.944  247.382    0.425    0.381   13.430
  295.500   47.724  247.956    0.433    0.381   13.759
  295.750   46.128  247.994    0.463    0.380   14.098
  296.000   47.403  247.529    0.474    0.378   14.362
  296.250   47.309  247.361    0.469    0.372   14.360
  296.500   46.834  246.893    0.466    0.363   13.880
  296.750   49.604  247.458    0.463    0.351   13.167
  297.000   53.746  247.395    0.460    0.350   12.514
  297.250   59.194  247.337    0.453    0.347   11.628
  297.500   59.471  247.071    0.458    0.346   10.805
  297.750   59.002  246.705    0.454    0.349    9.964
