~Version ---------------------------------------------------
VERS. 2.0 : CWLS log ASCII Standard -VERSION 2.0
WRAP.  NO : ONE LINE PER DEPTH STEP
~Well ------------------------------------------------------
WELL. CHEVRON MGSU 1 MITSUE 01-01 : Well_name    - WELL
LOC .         00/01-01-073-05W5/0 : Location     - LOCATION
UWI .         00/01-01-073-05W5/0 : Uwi          - UNIQUE WELL ID
ENTR.                        JAYE : Entered      - ENTERED BY
SRVC.                SCHLUMBERGER : Scn          - SERVICE COMPANY
DATE.                   23 DEC 86 : Date         - LOG DATE
STRT.M                      390.0 : top_depth    - START DEPTH
STOP.M                      650.0 : bot_depth    - STOP DEPTH
STEP.M                       0.25 : increment    - STEP LENGTH
NULL.                     -999.25 : NULL Value
~Curve Information -----------------------------------------
DEPT.M    00 001 00 00 : DEPTH        - DEPTH
DPHI.V/V  00 890 00 00 : PHID         - DENSITY POROSITY (SANDSTONE)
NPHI.V/V  00 330 00 00 : PHIN         - NEUTRON POROSITY (SANDSTONE)
GR  .API  00 310 00 00 : GR           - GAMMA RAY
CALI.MM   00 280 01 00 : CAL          - CALIPER
ILD .OHMM 00 120 00 00 : RESD         - DEEP RESISTIVITY (DIL)
~Params ----------------------------------------------------
GL  .M    583.3 : gl           - GROUND LEVEL ELEVATION
EREF.M      589 : kb           - ELEVATION OF DEPTH REFERENCE
DATM.M    583.3 : datum        - DATUM ELEVATION
TDD .M    733.4 : tdd          - TOTAL DEPTH DRILLER
RUN .       ONE : Run          - RUN NUMBER
ENG .   SIMMONS : Engineer     - RECORDING ENGINEER
WIT .      SANK : Witness      - WITNESSED BY
BASE.      S.L. : Branch       - HOME BASE OF LOGGING UNIT
MUD .  GEL CHEM : Mud_type     - MUD TYPE
MATR. SANDSTONE : Logunit      - NEUTRON MATRIX
TMAX.C       41 : BHT          - MAXIMUM RECORDED TEMPERATURE
BHTD.M    733.8 : BHTDEP       - MAXIMUM RECORDED TEMPERATURE
RMT .C       17 : MDTP         - TEMPERATURE OF MUD
MUDD.KG/M  1100 : MWT          - MUD DENSITY
NEUT.         1 : NEUTRON      - NEUTRON TYPE
RESI.         0 : RESIST       - RESISTIVITY TYPE
RM  .OHMM  2.62 : RM           - RESISTIVITY OF MUD
RMC .OHMM     0 : RMC          - RESISTIVITY OF MUD CAKE
RMF .OHMM  1.02 : RMF          - RESISTIVITY OF MUD FILTRATE
SUFT.C        0 : SUFT         - SURFACE TEMPERATURE
~Other -----------------------------------------------------
~ASCII -----------------------------------------------------
# ...
  510.00000    0.34000    0.40000   51.86000  268.99600    2.83100
  510.25000    0.34100    0.40200   52.75800  269.04700    2.76600
  510.50000    0.33500    0.42800   54.08900  268.59500    2.74200
  510.75000    0.32900    0.44000   56.10800  268.01700    2.74500
  511.00000    0.32300    0.45200   57.38200  268.17900    2.77300
  511.25000    0.32200    0.46100   58.15700  268.84800    2.84900
  511.50000    0.32500    0.45800   58.55600  270.03700    2.98300
  511.75000    0.32700    0.44200   58.96700  271.43400    3.11800
  512.00000    0.32500    0.42500   59.17600  273.35100    3.20900
  512.25000    0.31600    0.40400   59.20800  274.74500    3.36600
  512.50000    0.30600    0.41800   58.74400  276.02800    3.48400
  512.75000    0.30000    0.40300   57.47600  277.54300    3.61400
  513.00000    0.30100    0.39900   56.20000  278.41200    3.75500
  513.25000    0.30600    0.41000   55.98700  279.59800    3.90900
  513.50000    0.31100    0.41800   57.56600  280.58100    4.04700
  513.75000    0.31300    0.42400   56.29500  280.94100    4.13500
  514.00000    0.31500    0.42300   51.17900  281.62100    4.14700
  514.25000    0.31800    0.40200   52.14100  281.77100    4.14400
  514.50000    0.31700    0.40300   54.09700  281.61500    4.11600
  514.75000    0.31600    0.41700   55.42900  281.67500    4.11200
  515.00000    0.31600    0.42600   55.83400  281.52300    4.06200
  515.25000    0.31700    0.43800   56.18000  281.46800    4.01300
  515.50000    0.31700    0.42600   56.70000  281.01300    3.92000
  515.75000    0.31900    0.41000   57.84900  280.65500    3.80800
  516.00000    0.32000    0.42000   58.12900  280.68500    3.63800
  516.25000    0.32300    0.43000   57.91300  280.53500    3.50100
  516.50000    0.32500    0.43400   55.08900  280.69400    3.41300
  516.75000    0.32600    0.42100   49.84900  280.53800    3.37800
  517.00000    0.32400    0.40800   51.74600  280.58700    3.39400
  517.25000    0.32100    0.43500   53.01500  280.44100    3.49400
  517.50000    0.32000    0.44600   49.88400  280.79800    3.63800
  517.75000    0.32100    0.43300   48.05200  281.25900    3.75200
  518.00000    0.32400    0.44800   51.06000  281.62800    3.67200
  518.25000    0.32600    0.45200   53.82200  281.68100    3.66200
  518.50000    0.32700    0.44700   55.40400  281.83400    3.63100
  518.75000    0.32600    0.43900   55.37400  281.88100    3.62100
  519.00000    0.32900    0.42700   54.04100  282.24100    3.61000
  519.25000    0.33000    0.41500   52.08600  282.81500    3.61400
  519.50000    0.32800    0.42100   48.95500  283.79900    3.63100
  519.75000    0.33300    0.45000   49.17300  284.47100    3.67500
  520.00000    0.33600    0.44800   51.55800  284.83200    3.72700
  520.25000    0.33700    0.43100   51.28000  284.36600    3.78000
  520.50000    0.33500    0.41300   50.63200  283.28500    3.83300
  520.75000    0.33100    0.40000   51.09700  282.30100    3.89500
  521.00000    0.32600    0.40300   54.29200  281.21700    3.93500
  521.25000    0.32400    0.43500   60.08700  280.34000    3.96900
  521.50000    0.32300    0.42000   59.00200  280.08600    3.97900
  521.75000    0.32100    0.41300   55.74700  279.93300    4.03600
  522.00000    0.32100    0.41000   51.06500  279.98300    4.11600
  522.25000    0.32100    0.40200   51.03500  280.23900    4.19000
  522.50000    0.32000    0.39300   52.12000  280.08400    4.20200
  522.75000    0.32500    0.39700   55.56100  279.82400    4.11200
  523.00000    0.33000    0.40400   55.46900  279.46000    3.92000
  523.25000    0.32700    0.40700   52.15400  279.11200    3.66900
  523.50000    0.32100    0.41100   51.50200  278.74400    3.46500
  523.75000    0.31900    0.42200   53.45500  278.69300    3.29700
  524.00000    0.30900    0.43800   57.08500  278.84300    3.17300
  524.25000    0.26500    0.38700   62.32200  278.89300    3.19400
  524.50000    0.22300    0.33600   65.76700  278.85200    3.33800
  524.75000    0.13500    0.27000   64.74300  278.69200    3.56000
  525.00000    0.14100    0.28900   71.15900  278.73900    3.99500
  525.25000    0.16200    0.32500   72.68100  278.79400    4.49900
  525.50000    0.18800    0.42400   71.03800  278.85400    5.05700
  525.75000    0.22100    0.45200   67.47100  278.59600    5.13800
  526.00000    0.27300    0.45700   59.75000  278.64900    4.74500
  526.25000    0.30500    0.44100   59.53700  279.00700    4.35800
  526.50000    0.29300    0.42700   61.36400  279.05800    3.97200
  526.75000    0.27700    0.41300   61.83000  279.72500    3.67500
  527.00000    0.26200    0.40800   62.05100  280.71700    3.53000
  527.25000    0.24700    0.41600   62.26400  281.59100    3.52700
  527.50000    0.27000    0.42400   61.61200  282.25900    3.61100
  527.75000    0.29000    0.44100   57.18000  282.62100    3.65500
  528.00000    0.30400    0.46400   57.40000  282.57400    3.69900
  528.25000    0.29400    0.44500   58.60800  283.14100    3.76600
  528.50000    0.27800    0.42500   59.87900  284.96000    3.83300
  528.75000    0.26200    0.41700   61.40100  286.76100    4.00600
  529.00000    0.25800    0.41600   62.85700  289.28800    4.17000
  529.25000    0.25500    0.41700   65.25100  292.34500    4.39900
  529.50000    0.21800    0.41600   67.32300  293.74300    4.55400
  529.75000    0.21200    0.42400   69.02500  293.06300    4.59200
  530.00000    0.23200    0.44600   65.33600  288.87900    4.51100
  530.25000    0.25800    0.43500   62.51500  286.44900    4.39900
  530.50000    0.26100    0.43700   61.30700  285.36500    4.29700
  530.75000    0.26100    0.43400   64.06600  285.42800    4.29300
  531.00000    0.24700    0.42100   68.00400  285.67600    4.42800
  531.25000    0.23800    0.42900   69.52400  285.93500    4.61800
  531.50000    0.22400    0.42200   64.84500  286.30000    4.88100
  531.75000    0.21100    0.40600   60.28600  286.35800    5.06100
  532.00000    0.21500    0.41300   61.18500  286.30700    5.23000
  532.25000    0.22400    0.40900   65.31000  286.35800    5.33500
  532.50000    0.22100    0.39700   65.89700  286.50900    5.42000
  532.75000    0.22700    0.42400   61.83500  286.55700    5.45500
  533.00000    0.24000    0.45900   64.90700  286.41100    5.36900
  533.25000    0.23300    0.40300   64.25500  286.15300    5.27400
  533.50000    0.21500    0.37500   61.31000  286.20300    5.18200
  533.75000    0.17900    0.35200   63.63700  285.84600    5.17700
  534.00000    0.18800    0.40500   68.07200  285.27000    5.26900
  534.25000    0.21800    0.45700   62.39800  284.50100    5.49600
  534.50000    0.19000    0.27100   55.11400  284.03100    5.88400
  534.75000    0.13200    0.26600   49.12600  284.40100    6.44400
  535.00000    0.07400    0.37600   61.37500  284.96600    6.75800
  535.25000    0.16000    0.40500   66.92400  286.57800    6.95800
  535.50000    0.19900    0.40900   71.85600  287.55400    6.80900
  535.75000    0.21000    0.40000   71.88600  288.74000    6.38300
  536.00000    0.20000    0.39800   72.23100  289.72300    5.86300
  536.25000    0.20100    0.41500   73.31800  290.50300    5.50600
  536.50000    0.21300    0.42800   74.03000  290.96900    5.25000
  536.75000    0.22100    0.43900   73.99500  291.43100    5.09000
  537.00000    0.22200    0.40600   70.93200  291.78400    4.99100
  537.25000    0.21500    0.39000   68.91300  292.04700    4.94000
  537.50000    0.23300    0.39600   68.51100  292.10900    4.89000
  537.75000    0.23200    0.42300   71.32900  292.05000    4.86700
  538.00000    0.21800    0.44800   74.77100  292.10200    4.87100
  538.25000    0.20000    0.42900   76.41500  292.15700    4.83900
  538.50000    0.18300    0.44300   76.38600  292.31700    4.78000
  538.75000    0.19700    0.46000   76.66700  292.67300    4.66200
  539.00000    0.21500    0.42700   76.20100  292.62400    4.59600
  539.25000    0.22500    0.41600   73.44300  292.56400    4.46500
  539.50000    0.23600    0.43400   69.68900  292.20900    4.37000
  539.75000    0.23600    0.44700   64.70100  291.95200    4.30900
