~Version ---------------------------------------------------
VERS. 2.0 : CWLS log ASCII Standard -VERSION 2.0
WRAP.  NO : ONE LINE PER DEPTH STEP
~Well ------------------------------------------------------
WELL. CHEVRON MGSU 1 MITSUE 01-01 : Well_name    - WELL
LOC .         00/01-01-073-05W5/0 : Location     - LOCATION
UWI .         00/01-01-073-05W5/0 : Uwi          - UNIQUE WELL ID
ENTR.                        JAYE : Entered      - ENTERED BY
SRVC.                SCHLUMBERGER : Scn          - SERVICE COMPANY
DATE.                   23 DEC 86 : Date         - LOG DATE
STRT.M                      390.0 : top_depth    - START DEPTH
STOP.M                      650.0 : bot_depth    - STOP DEPTH
STEP.M                       0.25 : increment    - STEP LENGTH
NULL.                     -999.25 : NULL Value
~Curve Information -----------------------------------------
DEPT.M    00 001 00 00 : DEPTH        - DEPTH
DPHI.V/V  00 890 00 00 : PHID         - DENSITY POROSITY (SANDSTONE)
NPHI.V/V  00 330 00 00 : PHIN         - NEUTRON POROSITY (SANDSTONE)
GR  .API  00 310 00 00 : GR           - GAMMA RAY
CALI.MM   00 280 01 00 : CAL          - CALIPER
ILD .OHMM 00 120 00 00 : RESD         - DEEP RESISTIVITY (DIL)
~Params ----------------------------------------------------
GL  .M    583.3 : gl           - GROUND LEVEL ELEVATION
EREF.M      589 : kb           - ELEVATION OF DEPTH REFERENCE
DATM.M    583.3 : datum        - DATUM ELEVATION
TDD .M    733.4 : tdd          - TOTAL DEPTH DRILLER
RUN .       ONE : Run          - RUN NUMBER
ENG .   SIMMONS : Engineer     - RECORDING ENGINEER
WIT .      SANK : Witness      - WITNESSED BY
BASE.      S.L. : Branch       - HOME BASE OF LOGGING UNIT
MUD .  GEL CHEM : Mud_type     - MUD TYPE
MATR. SANDSTONE : Logunit      - NEUTRON MATRIX
TMAX.C       41 : BHT          - MAXIMUM RECORDED TEMPERATURE
BHTD.M    733.8 : BHTDEP       - MAXIMUM RECORDED TEMPERATURE
RMT .C       17 : MDTP         - TEMPERATURE OF MUD
MUDD.KG/M  1100 : MWT          - MUD DENSITY
NEUT.         1 : NEUTRON      - NEUTRON TYPE
RESI.         0 : RESIST       - RESISTIVITY TYPE
RM  .OHMM  2.62 : RM           - RESISTIVITY OF MUD
RMC .OHMM     0 : RMC          - RESISTIVITY OF MUD CAKE
RMF .OHMM  1.02 : RMF          - RESISTIVITY OF MUD FILTRATE
SUFT.C        0 : SUFT         - SURFACE TEMPERATURE
~Other -----------------------------------------------------
~ASCII -----------------------------------------------------
  390.00000    0.19900    0.45700   82.47800  238.37900    2.92300
  390.25000    0.20800    0.45600   86.41300  238.33100    2.92500
  390.50000    0.24600    0.45200   90.22900  238.06900    2.91700
  390.75000    0.26600    0.47500   90.94400  238.75200    2.89800
  391.00000    0.28700    0.48400   88.86600  239.72400    2.89000
  391.25000    0.28800    0.47400   82.63800  241.95100    2.84400
  391.50000    0.24100    0.46100   83.34500  244.47800    2.74800
  391.75000    0.21500    0.47100   88.40300  247.11600    2.72500
  392.00000    0.19000    0.44800   91.03800  250.47500    2.74800
  392.25000    0.21900    0.47800   89.57900  254.76400    2.84500
  392.50000    0.26900    0.55200   84.09200  258.01900    2.93900
  392.75000    0.31600    0.45800   78.47900  260.14300    3.08800
  393.00000    0.29900    0.42900   72.24900  256.37000    3.33800
  393.25000    0.24100    0.38500   69.17900  253.12000    3.58000
  393.50000    0.21600    0.32900   67.34900  252.44200    3.87000
  393.75000    0.29300    0.35500   58.39000  253.52600    4.09700
  394.00000    0.37400    0.48100   54.88800  256.37700    3.84800
  394.25000    0.45400    0.53600   61.61400  261.79900    3.26700
  394.50000    0.50800    0.56500   68.59200  272.70000    2.85300
  394.75000    0.55300    0.57800   60.06500  300.03600    2.63000
  395.00000    0.53500    0.57300   53.02500  267.43100    2.50200
  395.25000    0.50700    0.53800   64.90200  355.53800    2.43100
  395.50000    0.42200    0.45800   81.80500  384.11400    2.42900
  395.75000    0.34400    0.44400   85.12000  387.16400    2.49000
  396.00000    0.33200    0.44000   76.96500  256.99500    2.68700
  396.25000    0.27800    0.44000   71.47600  238.54800    2.80700
  396.50000    0.23000    0.43500   69.65200  275.28600    2.97200
  396.75000    0.20800    0.41800   68.99600  260.76800    3.12900
  397.00000    0.23500    0.42400   69.70900  247.17600    3.27600
  397.25000    0.23400    0.47700   70.50400  244.44500    3.31000
  397.50000    0.22700    0.46400   70.95000  245.21500    3.39500
  397.75000    0.23700    0.41900   68.68900  247.33200    3.54800
  398.00000    0.24700    0.43000   65.49400  249.24800    3.76300
  398.25000    0.25000    0.44100   61.81000  248.99800    4.11300
  398.50000    0.25300    0.43900   62.21000  249.04600    4.43600
  398.75000    0.26400    0.42600   65.52700  250.22900    4.70600
  399.00000    0.28200    0.40400   70.46000  252.66100    4.70200
  399.25000    0.30400    0.46700   72.47200  256.95000    4.55800
  399.50000    0.33200    0.48700   72.87600  265.99200    4.17900
  399.75000    0.50100    0.51000   69.74500  275.24100    3.90300
  400.00000    0.50700    0.48000   64.75500  269.71300    3.69300
  400.25000    0.28900    0.44200   64.78300  249.40600    3.55400
  400.50000    0.25200    0.42800   65.74600  235.40400    3.53100
  400.75000    0.24800    0.40800   67.38900  235.04000    3.58100
  401.00000    0.25200    0.43500   68.41400  234.26400    3.70700
  401.25000    0.25200    0.45200   69.55900  234.43300    3.78700
  401.50000    0.26000    0.43600   68.47500  233.85400    3.95000
  401.75000    0.27000    0.42600   64.97100  233.80600    4.33400
  402.00000    0.25500    0.41100   61.78000  237.16300    4.96400
  402.25000    0.20900    0.36800   58.39800  238.96900    5.59000
  402.50000    0.19100    0.30400   51.23700  239.23300    5.99700
  402.75000    0.10300    0.25700   45.19100  240.11300    6.09200
  403.00000    0.07800    0.34000   45.47400  241.10200    6.13200
  403.25000    0.09500    0.38000   51.51900  242.28800    6.06900
  403.50000    0.18600    0.42100   57.68700  245.13700    5.71100
  403.75000    0.22300    0.40100   63.92200  246.31500    5.06200
  404.00000    0.24400    0.40200   62.95800  248.12700    4.50300
  404.25000    0.26800    0.40800   56.91600  249.82900    4.23800
  404.50000    0.28100    0.40400   54.89800  250.29700    4.14000
  404.75000    0.28400    0.39400   53.01000  250.04700    4.20600
  405.00000    0.28300    0.39100   51.30300  250.19200    4.30600
  405.25000    0.28600    0.38000   52.63500  250.75700    4.25300
  405.50000    0.30900    0.46600   59.80300  255.04900    4.17100
  405.75000    0.36400    0.51900   64.91500  264.30700    4.04400
  406.00000    0.54800    0.48600   73.00600  287.39900    3.93600
  406.25000    0.49800    0.43200   59.89400  294.16900    3.88100
  406.50000    0.41300    0.38600   53.10100  259.90800    3.83400
  406.75000    0.32900    0.38100   47.48900  239.28800    3.84500
  407.00000    0.28700    0.39000   44.97900  238.41500    3.90600
  407.25000    0.28300    0.40800   49.84700  239.18800    3.89500
  407.50000    0.27900    0.43000   58.56300  240.28400    3.88500
  407.75000    0.28400    0.43200   51.02600  240.94700    3.90200
  408.00000    0.30200    0.41400   44.35900  241.82700    3.96500
  408.25000    0.32000    0.39200   44.02100  242.50200    4.16700
  408.50000    0.32300    0.36900   46.09700  243.16700    4.50300
  408.75000    0.29300    0.36600   53.20000  243.96500    4.99600
  409.00000    0.25400    0.36900   59.11900  244.31200    5.38000
  409.25000    0.21900    0.37000   69.19600  244.56500    5.60000
  409.50000    0.21500    0.40100   73.19800  244.82300    5.58500
  409.75000    0.23300    0.40800   73.78600  244.97900    5.27500
  410.00000    0.25000    0.39700   72.82700  244.51400    4.97300
  410.25000    0.27900    0.40300   68.63900  244.46800    4.66200
  410.50000    0.27900    0.39300   56.95000  244.42100    4.22600
  410.75000    0.27500    0.36100   46.13100  244.57400    3.92400
  411.00000    0.29200    0.33800   38.22700  244.62300    3.64500
  411.25000    0.31400    0.36100   33.10800  244.46700    3.50100
  411.50000    0.32400    0.37500   38.53500  244.21300    3.52400
  411.75000    0.31500    0.36100   47.49900  245.51400    3.73100
  412.00000    0.28100    0.33600   56.95200  246.79300    3.96500
  412.25000    0.24700    0.34300   74.90600  251.29300    4.09000
  412.50000    0.31600    0.38300   81.75700  257.85400    4.10100
  412.75000    0.35400    0.50900   87.99000  270.10100    3.99100
  413.00000    0.34900    0.50000   96.76500  286.79100    3.72800
  413.25000    0.32500    0.52800   90.65900  323.02000    3.42300
  413.50000    0.33700    0.52100   88.70500  323.89500    3.35700
  413.75000    0.33900    0.41300   86.38100  306.17300    3.75900
  414.00000    0.32400    0.39100   78.13100  272.32400    4.15500
  414.25000    0.26400    0.40300   78.13100  256.66800    4.78600
  414.50000    0.22300    0.37400   76.86100  253.83100    5.29900
  414.75000    0.22300    0.35200   65.36000  254.08400    5.82500
  415.00000    0.24600    0.33100   53.73200  254.55400    6.17800
  415.25000    0.26000    0.31400   37.33200  254.19600    6.19600
  415.50000    0.23000    0.30600   59.93400  252.69700    5.86400
  415.75000    0.20500    0.34000   69.14400  250.36900    5.57900
  416.00000    0.19000    0.35400   67.49900  246.70400    4.99100
  416.25000    0.26300    0.35800   51.65500  244.58000    4.37500
  416.50000    0.30800    0.34500   37.92000  243.39100    3.98700
  416.75000    0.30700    0.35000   32.92900  242.83200    3.73100
  417.00000    0.28500    0.35900   40.16000  242.88100    3.51100
  417.25000    0.26600    0.35800   49.48900  243.34700    3.58700
  417.50000    0.25100    0.36100   61.67200  243.82000    3.84100
  417.75000    0.22000    0.38300   70.19800  244.37700    4.13600
  418.00000    0.20800    0.42100   82.88300  246.08900    4.42900
  418.25000    0.21300    0.43500   77.20700  247.68200    4.65300
  418.50000    0.20800    0.41000   70.29300  251.05500    4.84400
  418.75000    0.20000    0.38500   66.97500  253.05900    5.00600
  419.00000    0.20100    0.36500   69.05300  255.08600    5.10600
  419.25000    0.21400    0.39100   74.79300  256.67900    4.80400
  419.50000    0.26800    0.43900   81.57900  260.03500    4.33000
  419.75000    0.40600    0.51400   86.82100  271.56100    3.51400
