~Version ---------------------------------------------------
VERS. 2.0 : CWLS log ASCII Standard -VERSION 2.0
WRAP.  NO : ONE LINE PER DEPTH STEP
~Well ------------------------------------------------------
WELL. CHEVRON MGSU 1 MITSUE 01-01 : Well_name    - WELL
LOC .         00/01-01-073-05W5/0 : Location     - LOCATION
UWI .         00/01-01-073-05W5/0 : Uwi          - UNIQUE WELL ID
ENTR.                        JAYE : Entered      - ENTERED BY
SRVC.                SCHLUMBERGER : Scn          - SERVICE COMPANY
DATE.                   23 DEC 86 : Date         - LOG DATE
STRT.M                      390.0 : top_depth    - START DEPTH
STOP.M                      650.0 : bot_depth    - STOP DEPTH
STEP.M                       0.25 : increment    - STEP LENGTH
NULL.                     -999.25 : NULL Value
~Curve Information -----------------------------------------
DEPT.M    00 001 00 00 : DEPTH        - DEPTH
DPHI.V/V  00 890 00 00 : PHID         - DENSITY POROSITY (SANDSTONE)
NPHI.V/V  00 330 00 00 : PHIN         - NEUTRON POROSITY (SANDSTONE)
GR  .API  00 310 00 00 : GR           - GAMMA RAY
CALI.MM   00 280 01 00 : CAL          - CALIPER
ILD .OHMM 00 120 00 00 : RESD         - DEEP RESISTIVITY (DIL)
~Params ----------------------------------------------------
GL  .M    583.3 : gl           - GROUND LEVEL ELEVATION
EREF.M      589 : kb           - ELEVATION OF DEPTH REFERENCE
DATM.M    583.3 : datum        - DATUM ELEVATION
TDD .M    733.4 : tdd          - TOTAL DEPTH DRILLER
RUN .       ONE : Run          - RUN NUMBER
ENG .   SIMMONS : Engineer     - RECORDING ENGINEER
WIT .      SANK : Witness      - WITNESSED BY
BASE.      S.L. : Branch       - HOME BASE OF LOGGING UNIT
MUD .  GEL CHEM : Mud_type     - MUD TYPE
MATR. SANDSTONE : Logunit      - NEUTRON MATRIX
TMAX.C       41 : BHT          - MAXIMUM RECORDED TEMPERATURE
BHTD.M    733.8 : BHTDEP       - MAXIMUM RECORDED TEMPERATURE
RMT .C       17 : MDTP         - TEMPERATURE OF MUD
MUDD.KG/M  1100 : MWT          - MUD DENSITY
NEUT.         1 : NEUTRON      - NEUTRON TYPE
RESI.         0 : RESIST       - RESISTIVITY TYPE
RM  .OHMM  2.62 : RM           - RESISTIVITY OF MUD
RMC .OHMM     0 : RMC          - RESISTIVITY OF MUD CAKE
RMF .OHMM  1.02 : RMF          - RESISTIVITY OF MUD FILTRATE
SUFT.C        0 : SUFT         - SURFACE TEMPERATURE
~Other -----------------------------------------------------
~ASCII -----------------------------------------------------
# ...
  540.00000    0.24700    0.42900   62.43400  291.58600    4.26500
  540.25000    0.23500    0.41900   66.56000  291.22900    4.21400
  540.50000    0.20000    0.40600   71.05300  291.17200    4.18600
  540.75000    0.19900    0.39100   72.75800  291.22700    4.16600
  541.00000    0.22200    0.42000   68.38800  292.41400    4.17000
  541.25000    0.24100    0.41100   63.02500  292.15500    4.26200
  541.50000    0.26400    0.39700   66.71600  292.31700    4.33800
  541.75000    0.25000    0.41200   70.21800  292.88300    4.39800
  542.00000    0.23800    0.43400   72.11700  293.34900    4.47000
  542.25000    0.22500    0.45600   72.64200  293.62000    4.49000
  542.50000    0.21800    0.45100   72.60800  294.18300    4.52000
  542.75000    0.22000    0.43000   71.33700  294.64700    4.56700
  543.00000    0.21900    0.42000   72.91900  295.42300    4.66600
  543.25000    0.21700    0.42400   76.11400  296.29700    4.74100
  543.50000    0.21400    0.44200   76.70300  296.75800    4.81600
  543.75000    0.21200    0.44300   74.19300  296.91400    4.85700
  544.00000    0.21100    0.43500   72.24200  296.66200    4.88000
  544.25000    0.21300    0.44800   71.71300  296.20600    4.85800
  544.50000    0.21700    0.46200   71.30700  295.83900    4.84400
  544.75000    0.22100    0.46500   74.25200  295.36700    4.85800
  545.00000    0.22000    0.44300   77.69700  294.40200    4.83500
  545.25000    0.21900    0.42100   77.66300  293.61700    4.80400
  545.50000    0.21600    0.41900   78.93500  292.94900    4.76300
  545.75000    0.20800    0.43100   79.09100  292.37800    4.74000
  546.00000    0.19900    0.43100   74.72000  291.80500    4.71900
  546.25000    0.19200    0.42700   74.06800  290.62200    4.71500
  546.50000    0.18600    0.43800   77.01500  289.73500    4.68400
  546.75000    0.19000    0.44800   79.52700  288.46100    4.66100
  547.00000    0.19300    0.45000   83.27700  287.56700    4.62300
  547.25000    0.19900    0.43100   84.17800  286.27600    4.59300
  547.50000    0.21300    0.40900   80.67300  285.00000    4.55400
  547.75000    0.22600    0.39900   78.22400  284.42200    4.49800
  548.00000    0.23900    0.38500   78.25500  283.95500    4.42000
  548.25000    0.25100    0.40300   80.95500  283.69500    4.39000
  548.50000    0.26700    0.42700   80.05900  283.65200    4.37000
  548.75000    0.25400    0.44900   78.16600  283.69500    4.32500
  549.00000    0.24700    0.42700   76.64400  283.53900    4.31300
  549.25000    0.23800    0.40900   72.77100  283.59200    4.36600
  549.50000    0.22900    0.39700   67.21900  284.16100    4.48600
  549.75000    0.21800    0.41000   61.05000  285.24700    4.75000
  550.00000    0.22900    0.43800   55.81100  286.85700    5.10500
  550.25000    0.20100    0.29600   56.46100  288.25200    5.62100
  550.50000    0.17500    0.29800   66.04200  290.47900    6.06300
  550.75000    0.14500    0.34000   74.88200  292.79200    6.10300
  551.00000    0.16000    0.39200   78.38700  296.26800    5.56300
  551.25000    0.18400    0.42000   81.08400  297.96300    5.11900
  551.50000    0.19500    0.42600   81.73200  299.56300    4.88900
  551.75000    0.18600    0.43400   82.13800  301.38300    4.74000
  552.00000    0.19000    0.43700   79.50000  303.08200    4.54500
  552.25000    0.18000    0.41700   76.12100  305.20700    4.34200
  552.50000    0.17600    0.39400   72.92800  307.11000    4.12300
  552.75000    0.18300    0.42100   72.83800  309.34900    3.85800
  553.00000    0.18100    0.45400   74.66700  310.63500    3.61700
  553.25000    0.17300    0.44400   78.10700  311.71100    3.44900
  553.50000    0.16900    0.43500   80.06100  313.32800    3.31900
  553.75000    0.17600    0.46100   81.33200  314.51000    3.29700
  554.00000    0.18300    0.48100   82.17000  315.90200    3.31900
  554.25000    0.19100    0.47500   81.76600  318.24000    3.40400
  554.50000    0.19100    0.43700   79.25500  319.95100    3.55700
  554.75000    0.18400    0.39700   78.85400  321.55500    3.78800
  555.00000    0.17700    0.39900   80.86800  322.73800    4.04700
  555.25000    0.18500    0.42100   81.02300  323.29300    4.22100
  555.50000    0.19100    0.44100   76.59100  324.18100    4.08500
  555.75000    0.18800    0.45500   75.25700  324.95800    3.81600
  556.00000    0.17900    0.47000   78.01600  325.73100    3.51100
  556.25000    0.17800    0.45200   78.23400  326.61900    3.29100
  556.50000    0.19500    0.47800   74.54600  327.59300    2.99400
  556.75000    0.22600    0.51000   75.81700  329.29600    2.86600
  557.00000    0.26100    0.49400   79.13600  330.89500    3.02200
  557.25000    0.23400    0.45500   76.56300  332.59700    3.32800
  557.50000    0.21900    0.44000   74.23700  334.52100    3.65100
  557.75000    0.20900    0.45100   73.52300  336.12100    3.94600
  558.00000    0.20600    0.44900   73.67800  338.02300    4.23400
  558.25000    0.20600    0.43500   75.32200  341.69200    4.34100
  558.50000    0.19700    0.42800   76.53300  346.20100    4.37000
  558.75000    0.17600    0.44000   72.28700  349.97100    4.46600
  559.00000    0.18600    0.45200   67.41700  352.80700    4.54500
  559.25000    0.20400    0.44800   62.61400  355.44200    4.64400
  559.50000    0.23000    0.43500   57.31100  355.91300    4.80700
  559.75000    0.25000    0.43600   55.41800  355.02900    5.03300
  560.00000    0.26300    0.45000   56.31700  348.68200    5.32900
  560.25000    0.25300    0.45500   55.98100  343.97800    5.57900
  560.50000    0.26000    0.41000   54.76800  342.07200    6.00700
  560.75000    0.26200    0.38700   54.73900  341.18100    6.46700
  561.00000    0.24900    0.36500   53.83900  340.82200    6.78300
  561.25000    0.23700    0.33800   53.31200  340.88200    6.72600
  561.50000    0.22600    0.34000   57.12800  341.03500    6.46200
  561.75000    0.21700    0.37200   60.94400  341.39700    5.92300
  562.00000    0.21300    0.39300   62.21100  341.76800    5.42900
  562.25000    0.21100    0.40700   63.54800  341.81500    4.92100
  562.50000    0.20500    0.41200   64.26000  341.55200    4.64000
  562.75000    0.18900    0.41500   64.78800  341.19300    4.46500
  563.00000    0.18900    0.41100   65.68700  340.83400    4.34600
  563.25000    0.19100    0.40000   67.14200  340.57500    4.28500
  563.50000    0.18900    0.38700   72.69400  340.41100    4.24100
  563.75000    0.18700    0.37900   74.08900  340.26500    4.22200
  564.00000    0.18700    0.39600   71.45700  340.01100    4.24100
  564.25000    0.18800    0.40200   69.68700  340.67400    4.20600
  564.50000    0.19900    0.41000   68.41700  341.55200    4.14700
  564.75000    0.20700    0.43100   67.33100  341.29300    4.12000
  565.00000    0.19800    0.40800   65.31700  339.89700    4.24100
  565.25000    0.18600    0.39400   61.62500  336.65000    4.60100
  565.50000    0.20000    0.38100   56.82300  335.25600    5.02900
  565.75000    0.21700    0.37100   56.73000  334.07200    5.35400
  566.00000    0.23400    0.38200   55.70600  333.70200    5.79700
  566.25000    0.23500    0.38200   53.00700  333.35000    6.43100
  566.50000    0.22800    0.32000   50.68200  333.49900    7.04200
  566.75000    0.17600    0.27800   47.92300  334.38100    7.54100
  567.00000    0.09300    0.29700   49.44400  335.87400    7.47700
  567.25000    0.14300    0.34100   54.06500  337.47400    6.86700
  567.50000    0.19900    0.39400   58.37500  339.59900    6.16700
  567.75000    0.22400    0.41600   61.00800  341.92700    5.57900
  568.00000    0.23800    0.42400   57.44600  343.63400    4.88900
  568.25000    0.26000    0.43100   54.19200  344.91800    4.37400
  568.50000    0.28900    0.45300   58.06300  346.00200    4.09200
  568.75000    0.29800    0.45700   58.77700  346.57300    3.88100
  569.00000    0.26800    0.42800   56.76900  345.07700    3.80500
  569.25000    0.24800    0.41800   56.11200  341.51700    3.87300
  569.50000    0.23700    0.41300   56.63800  339.70700    4.02400
  569.75000    0.22900    0.39000   57.10600  338.20100    4.39800
