~Version ---------------------------------------------------
VERS. 2.0 : CWLS log ASCII Standard -VERSION 2.0
WRAP.  NO : ONE LINE PER DEPTH STEP
~Well ------------------------------------------------------
WELL. CHEVRON MGSU 1 MITSUE 01-01 : Well_name    - WELL
LOC .         00/01-01-073-05W5/0 : Location     - LOCATION
UWI .         00/01-01-073-05W5/0 : Uwi          - UNIQUE WELL ID
ENTR.                        JAYE : Entered      - ENTERED BY
SRVC.                SCHLUMBERGER : Scn          - SERVICE COMPANY
DATE.                   23 DEC 86 : Date         - LOG DATE
STRT.M                      390.0 : top_depth    - START DEPTH
STOP.M                      650.0 : bot_depth    - STOP DEPTH
STEP.M                       0.25 : increment    - STEP LENGTH
NULL.                     -999.25 : NULL Value
~Curve Information -----------------------------------------
DEPT.M    00 001 00 00 : DEPTH        - DEPTH
DPHI.V/V  00 890 00 00 : PHID         - DENSITY POROSITY (SANDSTONE)
NPHI.V/V  00 330 00 00 : PHIN         - NEUTRON POROSITY (SANDSTONE)
GR  .API  00 310 00 00 : GR           - GAMMA RAY
CALI.MM   00 280 01 00 : CAL          - CALIPER
ILD .OHMM 00 120 00 00 : RESD         - DEEP RESISTIVITY (DIL)
~Params ----------------------------------------------------
GL  .M    583.3 : gl           - GROUND LEVEL ELEVATION
EREF.M      589 : kb           - ELEVATION OF DEPTH REFERENCE
DATM.M    583.3 : datum        - DATUM ELEVATION
TDD .M    733.4 : tdd          - TOTAL DEPTH DRILLER
RUN .       ONE : Run          - RUN NUMBER
ENG .   SIMMONS : Engineer     - RECORDING ENGINEER
WIT .      SANK : Witness      - WITNESSED BY
BASE.      S.L. : Branch       - HOME BASE OF LOGGING UNIT
MUD .  GEL CHEM : Mud_type     - MUD TYPE
MATR. SANDSTONE : Logunit      - NEUTRON MATRIX
TMAX.C       41 : BHT          - MAXIMUM RECORDED TEMPERATURE
BHTD.M    733.8 : BHTDEP       - MAXIMUM RECORDED TEMPERATURE
RMT .C       17 : MDTP         - TEMPERATURE OF MUD
MUDD.KG/M  1100 : MWT          - MUD DENSITY
NEUT.         1 : NEUTRON      - NEUTRON TYPE
RESI.         0 : RESIST       - RESISTIVITY TYPE
RM  .OHMM  2.62 : RM           - RESISTIVITY OF MUD
RMC .OHMM     0 : RMC          - RESISTIVITY OF MUD CAKE
RMF .OHMM  1.02 : RMF          - RESISTIVITY OF MUD FILTRATE
SUFT.C        0 : SUFT         - SURFACE TEMPERATURE
~Other -----------------------------------------------------
~ASCII -----------------------------------------------------
# ...
  450.00000    0.33100    0.38400   44.84600  248.83800    4.91700
  450.25000    0.33500    0.40300   45.68500  248.57900    4.89400
  450.50000    0.34400    0.41000   46.08600  247.92900    4.87200
  450.75000    0.33300    0.40600   46.30300  247.76300    4.87700
  451.00000    0.32400    0.40400   46.64400  247.50000    4.88100
  451.25000    0.33500    0.40800   48.35200  247.33900    4.92300
  451.50000    0.35800    0.41200   47.69900  247.09500    4.94400
  451.75000    0.35300    0.41300   47.60900  246.92800    4.92300
  452.00000    0.33300    0.40700   48.76000  246.87000    4.90800
  452.25000    0.33400    0.40700   50.02400  247.23100    4.86700
  452.50000    0.33300    0.43300   51.85200  247.59300    4.87300
  452.75000    0.33200    0.45300   54.24200  247.74900    4.86700
  453.00000    0.34100    0.44000   58.73600  247.80700    4.86300
  453.25000    0.34800    0.42900   54.24100  247.45300    4.84900
  453.50000    0.34900    0.43700   51.60600  247.18500    4.84500
  453.75000    0.34100    0.44800   49.22400  246.94100    4.83000
  454.00000    0.32900    0.43100   47.39100  246.68300    4.81700
  454.25000    0.32500    0.40100   45.06500  246.62600    4.80300
  454.50000    0.32400    0.37800   46.83500  246.88900    4.80800
  454.75000    0.32700    0.41100   49.40600  247.46500    4.83000
  455.00000    0.33800    0.42100   50.86500  248.24400    4.85400
  455.25000    0.34900    0.42400   51.08500  248.60100    4.83100
  455.50000    0.35300    0.43200   51.55300  248.96300    4.83600
  455.75000    0.35100    0.44300   52.38300  249.31700    4.85800
  456.00000    0.33900    0.43500   53.22100  249.78000    4.87200
  456.25000    0.33300    0.41500   51.70600  250.03100    4.97800
  456.50000    0.33200    0.40000   50.68200  250.80500    5.07600
  456.75000    0.34200    0.41300   49.65800  259.44100    5.18600
  457.00000    0.59900    0.55200   55.95200  276.43800    5.25000
  457.25000    0.57400    0.62200   62.06200  296.95300    5.20700
  457.50000    0.53300    0.61700   68.66400  285.84300    5.00100
  457.75000    0.25900    0.51600   75.20800  273.18700    4.68800
  458.00000    0.21500    0.43400   79.20800  262.17700    4.56300
  458.25000    0.22400    0.41700   81.60000  257.79400    4.49900
  458.50000    0.24600    0.41600   82.55500  258.98500    4.42000
  458.75000    0.26000    0.44800   83.64300  258.61600    4.37500
  459.00000    0.26500    0.45800   81.13200  256.50000    4.34600
  459.25000    0.25300    0.45600   74.46300  253.96300    4.35800
  459.50000    0.25700    0.44600   68.48100  250.92000    4.37900
  459.75000    0.27600    0.42800   61.75500  247.55500    4.36600
  460.00000    0.30200    0.41500   56.69900  247.09500    4.37000
  460.25000    0.31700    0.39800   55.98700  248.17700    4.39100
  460.50000    0.31300    0.40800   56.45300  247.50500    4.42000
  460.75000    0.30600    0.39500   56.72900  246.64400    4.35000
  461.00000    0.30100    0.39700   54.34300  246.58700    4.31300
  461.25000    0.30000    0.40600   54.80800  246.63900    4.23000
  461.50000    0.30200    0.40000   56.14300  247.09600    4.21000
  461.75000    0.30300    0.38700   55.98700  247.78500    4.20600
  462.00000    0.30500    0.40800   55.71500  248.35200    4.16300
  462.25000    0.30600    0.43000   56.48900  248.81500    4.08200
  462.50000    0.30600    0.43800   57.51400  249.05900    3.98000
  462.75000    0.30600    0.41600   58.90500  249.34700    3.90200
  463.00000    0.30700    0.40800   63.71100  249.28400    3.84100
  463.25000    0.30900    0.42100   65.60500  249.22200    3.81600
  463.50000    0.31200    0.42600   64.14700  248.75600    3.82000
  463.75000    0.31600    0.42800   61.75900  248.29000    3.81600
  464.00000    0.32100    0.43500   58.19500  247.93700    3.84100
  464.25000    0.32200    0.42200   55.49800  247.47000    3.89600
  464.50000    0.32100    0.40700   57.26200  247.30900    3.97300
  464.75000    0.32000    0.41600   59.52600  247.15400    4.04400
  465.00000    0.31900    0.42500   59.74200  246.89900    4.12400
  465.25000    0.31600    0.42900   57.29400  246.85800    4.18300
  465.50000    0.30900    0.44500   56.45700  246.80300    4.21100
  465.75000    0.30000    0.42800   55.93300  246.94900    4.25400
  466.00000    0.26800    0.27800   52.73600  247.21000    4.28900
  466.25000    0.18200    0.21000   46.75200  247.57900    4.36700
  466.50000    0.08100    0.19600   41.76200  247.94200    4.47800
  466.75000    0.03800    0.20400   38.69300  248.08800    4.67900
  467.00000    0.06000    0.23700   43.80700  248.36000    4.93500
  467.25000    0.11800    0.30700   50.47700  248.39900    5.57900
  467.50000    0.22200    0.38700   54.91000  248.45900    6.13200
  467.75000    0.26800    0.40000   54.01100  248.72200    6.57900
  468.00000    0.29800    0.40300   53.73600  249.07600    6.78400
  468.25000    0.28800    0.40800   54.44400  249.33200    6.23000
  468.50000    0.30200    0.41500   55.28900  249.92100    5.81900
  468.75000    0.32600    0.42700   55.44100  250.38300    5.43500
  469.00000    0.32700    0.41000   55.77900  250.83300    5.02800
  469.25000    0.31400    0.39400   56.36800  251.20000    4.59200
  469.50000    0.29600    0.42000   56.95600  251.25200    4.13900
  469.75000    0.24500    0.41400   56.49600  251.29900    4.00600
  470.00000    0.14100    0.36500   54.35800  251.35900    4.22500
  470.25000    0.06100    0.21000   47.56300  251.31200    4.86700
  470.50000    0.02200    0.21400   45.05400  251.25700    5.37900
  470.75000    0.00100    0.19700   46.26100  251.50400    6.02400
  471.00000    0.00800    0.18000   47.28500  251.46500    7.00400
  471.25000    0.04000    0.20100   47.56500  251.30000    8.15800
  471.50000    0.18700    0.28900   50.07900  251.46400    9.29000
  471.75000    0.25300    0.35600   52.77500  252.75200   11.36100
  472.00000    0.28200    0.39700   56.15600  254.87300   14.66800
  472.25000    0.30600    0.41900   49.11800  256.26200   12.13100
  472.50000    0.30900    0.43500   44.93400  258.39500    9.71700
  472.75000    0.29900    0.42400   46.51300  259.37300    7.23700
  473.00000    0.29900    0.42600   57.33300  260.15400    6.04100
  473.25000    0.30200    0.42400   63.44200  260.82600    5.09000
  473.50000    0.30800    0.40900   62.35800  261.17800    4.42800
  473.75000    0.31000    0.41700   62.20100  261.32900    4.06600
  474.00000    0.31300    0.42000   63.41200  261.38100    3.81200
  474.25000    0.30500    0.39500   63.94000  262.05600    3.69600
  474.50000    0.28400    0.41800   65.14800  262.32500    3.68600
  474.75000    0.26200    0.43500   67.53600  262.37300    3.73100
  475.00000    0.23500    0.40600   69.43000  262.42800    3.80500
  475.25000    0.21800    0.40000   65.18000  262.05800    3.90200
  475.50000    0.22200    0.42000   62.73400  261.70600    4.00900
  475.75000    0.23500    0.45000   66.42500  261.56300    4.22200
  476.00000    0.25000    0.42400   70.79400  261.49200    4.32100
  476.25000    0.25900    0.41400   72.06600  261.44300    4.36600
  476.50000    0.25600    0.43700   74.14100  261.50300    4.40300
  476.75000    0.25400    0.46700   74.11100  261.54200    4.44800
  477.00000    0.25600    0.43300   68.00300  261.69800    4.48600
  477.25000    0.25600    0.41400   65.05800  263.00400    4.52400
  477.50000    0.25900    0.40100   68.99700  263.97800    4.52800
  477.75000    0.26900    0.39600   65.74200  264.85100    4.53300
  478.00000    0.25000    0.40800   62.42300  266.04700    4.56300
  478.25000    0.24400    0.42100   63.51300  266.71500    4.56700
  478.50000    0.25100    0.41600   66.26900  267.18900    4.60500
  478.75000    0.20200    0.41700   73.55700  267.54400    4.61000
  479.00000    0.18200    0.42500   73.95900  268.73400    4.64000
  479.25000    0.18100    0.43700   69.22000  270.13100    4.67900
  479.50000    0.22800    0.44900   65.96200  271.31300    4.72700
  479.75000    0.25800    0.43100   66.61200  272.19400    4.68800
