~Version ---------------------------------------------------
VERS. 2.0 : CWLS log ASCII Standard -VERSION 2.0
WRAP.  NO : ONE LINE PER DEPTH STEP
~Well ------------------------------------------------------
WELL. CHEVRON MGSU 1 MITSUE 01-01 : Well_name    - WELL
LOC .         00/01-01-073-05W5/0 : Location     - LOCATION
UWI .         00/01-01-073-05W5/0 : Uwi          - UNIQUE WELL ID
ENTR.                        JAYE : Entered      - ENTERED BY
SRVC.                SCHLUMBERGER : Scn          - SERVICE COMPANY
DATE.                   23 DEC 86 : Date         - LOG DATE
STRT.M                      390.0 : top_depth    - START DEPTH
STOP.M                      650.0 : bot_depth    - STOP DEPTH
STEP.M                       0.25 : increment    - STEP LENGTH
NULL.                     -999.25 : NULL Value
~Curve Information -----------------------------------------
DEPT.M    00 001 00 00 : DEPTH        - DEPTH
DPHI.V/V  00 890 00 00 : PHID         - DENSITY POROSITY (SANDSTONE)
NPHI.V/V  00 330 00 00 : PHIN         - NEUTRON POROSITY (SANDSTONE)
GR  .API  00 310 00 00 : GR           - GAMMA RAY
CALI.MM   00 280 01 00 : CAL          - CALIPER
ILD .OHMM 00 120 00 00 : RESD         - DEEP RESISTIVITY (DIL)
~Params ----------------------------------------------------
GL  .M    583.3 : gl           - GROUND LEVEL ELEVATION
EREF.M      589 : kb           - ELEVATION OF DEPTH REFERENCE
DATM.M    583.3 : datum        - DATUM ELEVATION
TDD .M    733.4 : tdd          - TOTAL DEPTH DRILLER
RUN .       ONE : Run          - RUN NUMBER
ENG .   SIMMONS : Engineer     - RECORDING ENGINEER
WIT .      SANK : Witness      - WITNESSED BY
BASE.      S.L. : Branch       - HOME BASE OF LOGGING UNIT
MUD .  GEL CHEM : Mud_type     - MUD TYPE
MATR. SANDSTONE : Logunit      - NEUTRON MATRIX
TMAX.C       41 : BHT          - MAXIMUM RECORDED TEMPERATURE
BHTD.M    733.8 : BHTDEP       - MAXIMUM RECORDED TEMPERATURE
RMT .C       17 : MDTP         - TEMPERATURE OF MUD
MUDD.KG/M  1100 : MWT          - MUD DENSITY
NEUT.         1 : NEUTRON      - NEUTRON TYPE
RESI.         0 : RESIST       - RESISTIVITY TYPE
RM  .OHMM  2.62 : RM           - RESISTIVITY OF MUD
RMC .OHMM     0 : RMC          - RESISTIVITY OF MUD CAKE
RMF .OHMM  1.02 : RMF          - RESISTIVITY OF MUD FILTRATE
SUFT.C        0 : SUFT         - SURFACE TEMPERATURE
~Other -----------------------------------------------------
~ASCII -----------------------------------------------------
# ...
  600.00000    0.21400    0.36600   77.94500  330.97500    6.67900
  600.25000    0.18300    0.34600   78.71200  322.17900    7.15700
  600.50000    0.15100    0.32300   73.90700  317.36100    7.50000
  600.75000    0.25500    0.29700   71.08000  317.81500    7.18500
  601.00000    0.31400    0.40000   69.93100  328.49300    6.61800
  601.25000    0.34900    0.44100   72.68600  343.71500    5.19100
  601.50000    0.35800    0.46300   77.47600  331.57700    3.93700
  601.75000    0.33800    0.45900   81.34100  323.45500    3.70800
  602.00000    0.29800    0.43900   80.87400  321.65000    3.84300
  602.25000    0.28000    0.42500   77.98700  320.14000    4.14100
  602.50000    0.25700    0.41200   76.71000  317.59900    4.72900
  602.75000    0.22300    0.39200   75.86700  314.54100    5.26100
  603.00000    0.12900    0.34600   73.41500  310.65800    5.84200
  603.25000    0.02700    0.41600   69.22400  306.77500    6.13400
  603.50000    0.32000    0.44300   67.32800  302.47600    6.11100
  603.75000    0.34200    0.43700   71.75500  320.69500    6.02100
  604.00000    0.30300    0.33600   76.61200  317.12200    5.96500
  604.25000    0.21200    0.34900   79.79500  309.11200    6.04400
  604.50000    0.15600    0.35800   82.85700  304.29600    6.45300
  604.75000    0.10700    0.33100   85.98000  300.00200    6.85100
  605.00000    0.10800    0.34500   89.35100  297.87500    7.06000
  605.25000    0.11900    0.35800   89.43900  296.79100    6.77600
  605.50000    0.13500    0.36800   88.53200  297.54800    6.21800
  605.75000    0.15000    0.36500   93.82400  298.72300    5.97900
  606.00000    0.13700    0.34200   90.26100  298.87000    6.09200
  606.25000    0.16000    0.36600   86.81100  299.84100    6.52900
  606.50000    0.18700    0.36500   79.15900  302.25700    7.49800
  606.75000    0.17400    0.32800   68.70900  302.50600    7.99000
  607.00000    0.19100    0.31200   57.45700  286.95300    9.27900
  607.25000    0.21200    0.31200   50.66700  273.46700   10.89800
  607.50000    0.20400    0.30800   46.16900  266.49000   11.92200
  607.75000    0.19900    0.30200   41.48500  263.84900   11.46400
  608.00000    0.29500    0.28500   38.90700  263.06600    8.67800
  608.25000    0.38800    0.27800   48.97000  267.54400    6.94800
  608.50000    0.60600    0.44900   63.86500  284.31300    5.45000
  608.75000    0.66200    0.55000   74.98000  328.03500    4.56300
  609.00000    0.49200    0.46700   77.60800  328.38700    5.02000
  609.25000    0.33300    0.39300   60.28400  309.01500    5.88500
  609.50000    0.27100    0.34800   50.15000  289.53900    7.26900
  609.75000    0.19900    0.33600   43.42000  268.61900    9.11400
  610.00000    0.18000    0.32300   36.32200  288.38300   11.86300
  610.25000    0.20800    0.31700   31.01700  276.03600   13.93200
  610.50000    0.22400    0.30100   27.38700  264.51700   15.67400
  610.75000    0.21100    0.28200   28.89800  255.36500   17.05100
  611.00000    0.18900    0.25200   33.13600  246.93600   17.02000
  611.25000    0.16800    0.23500   35.51800  246.98900   14.68500
  611.50000    0.14400    0.24300   30.89500  247.64600   12.98100
  611.75000    0.17200    0.28600   37.92100  247.16700   11.20000
  612.00000    0.29000    0.37600   53.93300  246.48500    8.96700
  612.25000    0.37900    0.34400   61.82700  245.81600    7.78000
  612.50000    0.29600    0.32200   68.91400  245.64000    7.00800
  612.75000    0.21700    0.30700   65.34500  245.37300    6.12600
  613.00000    0.17500    0.31000   55.89000  244.99900    5.40500
  613.25000    0.20200    0.32000   53.00300  244.22200    4.68100
  613.50000    0.22500    0.33300   52.16200  243.95800    4.15400
  613.75000    0.23800    0.33800   50.38900  243.89200    3.74800
  614.00000    0.25000    0.32100   47.37900  243.93200    3.50400
  614.25000    0.24000    0.32700   48.02300  244.90700    3.33200
  614.50000    0.22700    0.33800   50.46600  245.77900    3.17400
  614.75000    0.24800    0.34700   46.77300  245.71900    3.02400
  615.00000    0.26700    0.34500   47.60400  245.13500    2.97400
  615.25000    0.26300    0.33200   49.42500  244.34300    2.97400
  615.50000    0.24300    0.31200   47.65500  243.56300    3.03000
  615.75000    0.22200    0.29900   47.49500  242.67500    3.16900
  616.00000    0.24900    0.31400   50.80200  242.19700    3.48700
  616.25000    0.23700    0.32900   55.72200  242.76100    3.71600
  616.50000    0.19600    0.32900   59.34000  243.11400    4.04200
  616.75000    0.16500    0.32800   62.03100  243.15100    4.47100
  617.00000    0.14300    0.33300   65.39900  242.98600    5.07800
  617.25000    0.13900    0.34500   71.06300  242.92100    5.56500
  617.50000    0.15200    0.36200   69.41600  243.38100    6.22600
  617.75000    0.16300    0.29900   55.06600  243.62900    6.91300
  618.00000    0.13400    0.27300   44.31100  244.60500    7.63400
  618.25000    0.08800    0.22100   35.10500  244.74200    8.65300
  618.50000    0.07000    0.22800   30.66800  244.78300    9.29000
  618.75000    0.12000    0.29700   32.24200  245.03100    9.00000
  619.00000    0.16600    0.30800   37.16100  244.67000    8.38400
  619.25000    0.17000    0.29100   42.64200  244.18700    7.73700
  619.50000    0.15900    0.26500   48.80000  243.81800    7.22000
  619.75000    0.15000    0.25300   55.70300  243.96400    6.51500
  620.00000    0.15200    0.27800   62.04800  244.93200    6.10300
  620.25000    0.16900    0.30000   67.21300  246.73300    5.85800
  620.50000    0.17900    0.32400   72.93800  250.69700    5.80400
  620.75000    0.15000    0.33800   80.58400  251.04500    5.90200
  621.00000    0.15400    0.34500   61.96200  248.82000    6.20800
  621.25000    0.16400    0.32700   56.47100  248.34600    6.60400
  621.50000    0.17400    0.30700   56.18900  248.07500    6.97200
  621.75000    0.18100    0.30700   61.16900  247.29800    7.09100
  622.00000    0.18900    0.31800   68.38000  246.61500    6.92100
  622.25000    0.19800    0.31500   68.77700  245.83900    6.54400
  622.50000    0.20300    0.29800   61.67600  245.46600    6.45900
  622.75000    0.20900    0.30700   56.00200  245.19200    6.82000
  623.00000    0.21400    0.31700   56.21200  244.91800    7.30800
  623.25000    0.19300    0.28900   49.91800  244.54800    8.42400
  623.50000    0.09200    0.19200   42.32600  244.08100    9.63800
  623.75000    0.05800    0.15400   38.25800  244.63400   10.58300
  624.00000    0.03100    0.17800   38.78400  245.71100   11.42700
  624.25000    0.01600    0.23700   42.71100  246.15800   11.53500
  624.50000    0.04700    0.27200   49.23900  246.20700    9.84100
  624.75000    0.09400    0.29700   57.19500  246.03900    7.93800
  625.00000    0.11100    0.32200   58.39600  245.36300    6.39100
  625.25000    0.14100    0.36100   53.53000  245.08800    5.20400
  625.50000    0.17000    0.32500   49.52600  244.20800    4.46500
  625.75000    0.18500    0.33300   44.90400  243.41800    4.12800
  626.00000    0.19600    0.32500   41.21300  242.52800    3.88900
  626.25000    0.20900    0.27600   38.76100  242.26600    3.76000
  626.50000    0.20100    0.27600   37.29500  242.40500    3.78900
  626.75000    0.18400    0.30700   36.82600  242.85900    3.94100
  627.00000    0.19800    0.31500   38.64800  242.60500    4.09100
  627.25000    0.20800    0.27600   44.24900  242.44100    4.33500
  627.50000    0.19300    0.27600   54.99300  242.68400    4.60300
  627.75000    0.16900    0.31000   63.56800  243.03700    4.93300
  628.00000    0.13600    0.34500   68.98200  243.07000    5.17900
  628.25000    0.12000    0.36700   60.58200  242.81700    5.43700
  628.50000    0.26800    0.49900   51.43900  242.84400    5.58100
  628.75000    0.36400    0.53000   45.32800  242.59000    5.35700
  629.00000    0.47600    0.46700   36.18300  242.61900    4.66500
  629.25000    0.38500    0.35500   27.59700  242.56200    4.08600
  629.50000    0.35200    0.31000   29.67000  242.18700    3.59800
  629.75000    0.30300    0.28900   26.78200  242.01700    3.14000
