~Version ---------------------------------------------------
VERS. 2.0 : CWLS log ASCII Standard -VERSION 2.0
WRAP.  NO : ONE LINE PER DEPTH STEP
~Well ------------------------------------------------------
WELL. CHEVRON MGSU 1 MITSUE 01-01 : Well_name    - WELL
LOC .         00/01-01-073-05W5/0 : Location     - LOCATION
UWI .         00/01-01-073-05W5/0 : Uwi          - UNIQUE WELL ID
ENTR.                        JAYE : Entered      - ENTERED BY
SRVC.                SCHLUMBERGER : Scn          - SERVICE COMPANY
DATE.                   23 DEC 86 : Date         - LOG DATE
STRT.M                      390.0 : top_depth    - START DEPTH
STOP.M                      650.0 : bot_depth    - STOP DEPTH
STEP.M                       0.25 : increment    - STEP LENGTH
NULL.                     -999.25 : NULL Value
~Curve Information -----------------------------------------
DEPT.M    00 001 00 00 : DEPTH        - DEPTH
DPHI.V/V  00 890 00 00 : PHID         - DENSITY POROSITY (SANDSTONE)
NPHI.V/V  00 330 00 00 : PHIN         - NEUTRON POROSITY (SANDSTONE)
GR  .API  00 310 00 00 : GR           - GAMMA RAY
CALI.MM   00 280 01 00 : CAL          - CALIPER
ILD .OHMM 00 120 00 00 : RESD         - DEEP RESISTIVITY (DIL)
~Params ----------------------------------------------------
GL  .M    583.3 : gl           - GROUND LEVEL ELEVATION
EREF.M      589 : kb           - ELEVATION OF DEPTH REFERENCE
DATM.M    583.3 : datum        - DATUM ELEVATION
TDD .M    733.4 : tdd          - TOTAL DEPTH DRILLER
RUN .       ONE : Run          - RUN NUMBER
ENG .   SIMMONS : Engineer     - RECORDING ENGINEER
WIT .      SANK : Witness      - WITNESSED BY
BASE.      S.L. : Branch       - HOME BASE OF LOGGING UNIT
MUD .  GEL CHEM : Mud_type     - MUD TYPE
MATR. SANDSTONE : Logunit      - NEUTRON MATRIX
TMAX.C       41 : BHT          - MAXIMUM RECORDED TEMPERATURE
BHTD.M    733.8 : BHTDEP       - MAXIMUM RECORDED TEMPERATURE
RMT .C       17 : MDTP         - TEMPERATURE OF MUD
MUDD.KG/M  1100 : MWT          - MUD DENSITY
NEUT.         1 : NEUTRON      - NEUTRON TYPE
RESI.         0 : RESIST       - RESISTIVITY TYPE
RM  .OHMM  2.62 : RM           - RESISTIVITY OF MUD
RMC .OHMM     0 : RMC          - RESISTIVITY OF MUD CAKE
RMF .OHMM  1.02 : RMF          - RESISTIVITY OF MUD FILTRATE
SUFT.C        0 : SUFT         - SURFACE TEMPERATURE
~Other -----------------------------------------------------
~ASCII -----------------------------------------------------
# ...
  630.00000    0.27600    0.26600   22.34200  241.86700    2.79100
  630.25000    0.24900    0.24800   21.99700  241.79200    2.68400
  630.50000    0.22500    0.23700   25.36900  241.63300    2.79700
  630.75000    0.19600    0.22800   36.67000  241.67600    3.18200
  631.00000    0.14700    0.25400   50.82100  241.72500    3.43500
  631.25000    0.09600    0.28700   55.18400  242.37900    3.66800
  631.50000    0.17200    0.30400   40.77200  242.83400    3.87200
  631.75000    0.19900    0.29900   30.76100  243.07500    3.75900
  632.00000    0.23100    0.29200   24.03100  243.12700    3.50100
  632.25000    0.26400    0.29300   26.28700  243.46800    3.41100
  632.50000    0.25400    0.31200   29.72000  243.82300    3.51500
  632.75000    0.24400    0.31100   31.29700  244.28400    3.67600
  633.00000    0.23000    0.29500   32.24900  244.94000    3.82400
  633.25000    0.22100    0.27200   34.00900  246.42900    3.99900
  633.50000    0.32500    0.32300   38.98900  251.73300    4.23800
  633.75000    0.49000    0.37000   45.89200  287.91600    4.49100
  634.00000    0.51900    0.55700   53.29000  337.00900    4.67100
  634.25000    0.76800    0.54900   64.65300  355.64000    4.76000
  634.50000    0.73400    0.56600   66.97300  336.98800    4.93200
  634.75000    0.72900    0.55700   62.47500  386.49300    5.13000
  635.00000    0.78300    0.53600   60.01900  349.36000    5.23700
  635.25000    0.70300    0.54600   61.84300  309.95500    5.24700
  635.50000    0.77300    0.53900   65.21600  311.23600    5.04500
  635.75000    0.81000    0.57600   67.40600  356.30100    4.77100
  636.00000    0.46100    0.62700   68.54500  311.52900    4.34500
  636.25000    0.32300    0.44300   60.82700  291.12200    4.10100
  636.50000    0.25600    0.28600   50.07300  285.48900    4.00300
  636.75000    0.24100    0.29800   39.62500  287.29000    3.98100
  637.00000    0.20900    0.29900   37.60500  288.67100    4.03300
  637.25000    0.23200    0.29500   38.81400  289.64700    4.29800
  637.50000    0.23500    0.28500   38.08900  290.40500    4.59800
  637.75000    0.23100    0.27700   37.12700  291.37300    5.07700
  638.00000    0.22600    0.27200   38.51400  292.34600    5.52300
  638.25000    0.22200    0.29700   41.88200  294.35100    6.26000
  638.50000    0.24100    0.40200   46.98900  296.25200    7.01600
  638.75000    0.32100    0.43300   48.01000  297.73700    7.89300
  639.00000    0.43500    0.48000   46.48100  300.26600    8.91300
  639.25000    0.45100    0.46700   43.71800  301.74800   10.60600
  639.50000    0.48800    0.54500   42.87500  302.51000   12.22600
  639.75000    0.31500    0.48300   41.22700  301.10900   10.37200
  640.00000    0.25100    0.35800   39.14800  300.42300    7.97000
  640.25000    0.19800    0.30500   40.59600  300.78000    6.88900
  640.50000    0.18500    0.30300   44.90100  300.82100    6.20500
  640.75000    0.17700    0.29100   43.31200  300.76100    5.72600
  641.00000    0.16300    0.28100   36.76900  300.49500    5.55800
  641.25000    0.15200    0.28300   33.75700  300.95000    5.54800
  641.50000    0.16100    0.29800   34.52600  301.39800    5.52800
  641.75000    0.17200    0.29500   39.69500  301.02800    5.42600
  642.00000    0.18300    0.28100   38.79200  300.34500    5.19800
  642.25000    0.20100    0.27800   36.89300  299.97500    5.07300
  642.50000    0.19800    0.30000   36.73500  300.94500    5.01700
  642.75000    0.20600    0.32900   36.45100  302.74200    4.92400
  643.00000    0.31000    0.39900   36.28700  308.67800    4.85200
  643.25000    0.33600    0.39000   39.34900  313.67600    4.85200
  643.50000    0.33200    0.38100   44.70400  318.15600    4.91600
  643.75000    0.50900    0.38100   45.47100  323.66700    6.28000
  644.00000    0.59500    0.53500   42.83100  322.46900    7.48700
  644.25000    0.34000    0.24000   39.07700  297.41900    8.77700
  644.50000    0.22400    0.20300   38.42100  280.11400   10.00400
  644.75000    0.16000    0.15200   35.03800  269.31200   11.25500
  645.00000    0.00400    0.09000   29.67300  261.81600   12.38100
  645.25000    0.01000    0.09100   29.82300  259.58800   13.41800
  645.50000    0.01800    0.09700   31.52000  259.52900   14.38000
  645.75000    0.02100    0.08800   31.85400  259.57500   15.15400
  646.00000    0.01500    0.06500   30.64200  259.71400   15.79100
  646.25000    0.00300    0.05500   29.11600  259.44600   16.27100
  646.50000   -0.00500    0.05300   28.46000  259.27700   16.51700
  646.75000   -0.00500    0.05600   27.37000  258.50200   16.79900
  647.00000    0.00900    0.06200   25.41500  258.22600   16.95700
  647.25000    0.01900    0.06700   23.64000  258.36900   17.18200
  647.50000    0.01400    0.07200   26.88900  258.51700   17.47400
  647.75000    0.00500    0.07400   29.63900  259.08600   17.57400
  648.00000   -0.01100    0.07400   31.71100  259.42600   17.60800
  648.25000   -0.01000    0.07500   33.34400  260.40500   17.47800
  648.50000   -0.00400    0.07900   36.03700  261.78400   17.22000
  648.75000    0.00000    0.08800   38.59900  263.17300   16.93400
  649.00000    0.00700    0.09800   41.66200  264.14100   16.55900
  649.25000    0.01700    0.11100   46.21000  264.69700   15.83400
  649.50000    0.02300    0.12600   51.12900  265.46700   14.44900
  649.75000    0.02800    0.14600   58.34000  266.02400   12.23600
  650.00000    0.03600    0.16600   64.62200  266.58100   10.57600
