~Version ---------------------------------------------------
VERS. 2.0 : CWLS log ASCII Standard -VERSION 2.0
WRAP.  NO : ONE LINE PER DEPTH STEP
~Well ------------------------------------------------------
WELL. CHEVRON MGSU 1 MITSUE 01-01 : Well_name    - WELL
LOC .         00/01-01-073-05W5/0 : Location     - LOCATION
UWI .         00/01-01-073-05W5/0 : Uwi          - UNIQUE WELL ID
ENTR.                        JAYE : Entered      - ENTERED BY
SRVC.                SCHLUMBERGER : Scn          - SERVICE COMPANY
DATE.                   23 DEC 86 : Date         - LOG DATE
STRT.M                      390.0 : top_depth    - START DEPTH
STOP.M                      650.0 : bot_depth    - STOP DEPTH
STEP.M                       0.25 : increment    - STEP LENGTH
NULL.                     -999.25 : NULL Value
~Curve Information -----------------------------------------
DEPT.M    00 001 00 00 : DEPTH        - DEPTH
DPHI.V/V  00 890 00 00 : PHID         - DENSITY POROSITY (SANDSTONE)
NPHI.V/V  00 330 00 00 : PHIN         - NEUTRON POROSITY (SANDSTONE)
GR  .API  00 310 00 00 : GR           - GAMMA RAY
CALI.MM   00 280 01 00 : CAL          - CALIPER
ILD .OHMM 00 120 00 00 : RESD         - DEEP RESISTIVITY (DIL)
~Params ----------------------------------------------------
GL  .M    583.3 : gl           - GROUND LEVEL ELEVATION
EREF.M      589 : kb           - ELEVATION OF DEPTH REFERENCE
DATM.M    583.3 : datum        - DATUM ELEVATION
TDD .M    733.4 : tdd          - TOTAL DEPTH DRILLER
RUN .       ONE : Run          - RUN NUMBER
ENG .   SIMMONS : Engineer     - RECORDING ENGINEER
WIT .      SANK : Witness      - WITNESSED BY
BASE.      S.L. : Branch       - HOME BASE OF LOGGING UNIT
MUD .  GEL CHEM : Mud_type     - MUD TYPE
MATR. SANDSTONE : Logunit      - NEUTRON MATRIX
TMAX.C       41 : BHT          - MAXIMUM RECORDED TEMPERATURE
BHTD.M    733.8 : BHTDEP       - MAXIMUM RECORDED TEMPERATURE
RMT .C       17 : MDTP         - TEMPERATURE OF MUD
MUDD.KG/M  1100 : MWT          - MUD DENSITY
NEUT.         1 : NEUTRON      - NEUTRON TYPE
RESI.         0 : RESIST       - RESISTIVITY TYPE
RM  .OHMM  2.62 : RM           - RESISTIVITY OF MUD
RMC .OHMM     0 : RMC          - RESISTIVITY OF MUD CAKE
RMF .OHMM  1.02 : RMF          - RESISTIVITY OF MUD FILTRATE
SUFT.C        0 : SUFT         - SURFACE TEMPERATURE
~Other -----------------------------------------------------
~ASCII -----------------------------------------------------
# ...
  420.00000    0.51700    0.56400   80.52600  303.44300    2.90600
  420.25000    0.57000    0.60100   74.29500  320.24100    2.69900
  420.50000    0.61200    0.64800   64.96300  297.96700    2.85800
  420.75000    0.64500    0.67200   55.81600  275.90600    3.18300
  421.00000    0.38900    0.51200   59.94000  250.73700    3.48400
  421.25000    0.32200    0.43600   64.00500  247.48100    4.23700
  421.50000    0.29700    0.42100   64.90300  246.81900    4.67500
  421.75000    0.28900    0.41600   67.66500  247.89700    4.17400
  422.00000    0.29600    0.43600   70.48300  248.57200    3.92100
  422.25000    0.30300    0.45100   69.46000  249.03300    4.08200
  422.50000    0.30900    0.44300   69.36900  249.29200    4.26500
  422.75000    0.31300    0.43500   69.58800  249.66300    4.41600
  423.00000    0.31300    0.44400   70.85900  249.71000    4.45400
  423.25000    0.31200    0.44900   69.52600  249.87200    4.40700
  423.50000    0.30600    0.42100   67.32300  250.44200    4.31400
  423.75000    0.29400    0.43500   66.24200  250.28500    4.20600
  424.00000    0.28800    0.45100   66.14400  250.64500    4.07100
  424.25000    0.26900    0.45400   66.11300  252.14200    3.99100
  424.50000    0.24200    0.44500   70.30000  252.70900    3.79800
  424.75000    0.22100    0.42600   73.98900  254.73100    3.66200
  425.00000    0.26700    0.45100   74.82600  259.95000    3.51100
  425.25000    0.29200    0.48700   74.36200  263.92300    3.47500
  425.50000    0.30800    0.47700   72.28500  257.87700    3.48500
  425.75000    0.32300    0.44900   63.88200  252.87300    3.60100
  426.00000    0.34100    0.42800   56.96900  250.33300    3.84100
  426.25000    0.34800    0.39800   55.95000  248.00900    4.24600
  426.50000    0.34300    0.43100   55.29500  246.72500    4.51200
  426.75000    0.34000    0.45200   54.14700  246.16300    4.61900
  427.00000    0.33700    0.41700   54.55200  246.12300    4.67500
  427.25000    0.33400    0.40500   55.70100  246.16100    4.67000
  427.50000    0.33500    0.39900   56.47500  246.20900    4.64900
  427.75000    0.34400    0.39300   58.36800  246.15100    4.62700
  428.00000    0.35100    0.40400   58.83300  246.10900    4.62300
  428.25000    0.34500    0.41800   58.86800  246.36400    4.60100
  428.50000    0.34100    0.43300   59.94900  246.61900    4.59700
  428.75000    0.34400    0.45200   58.80100  246.77900    4.57600
  429.00000    0.35200    0.46100   58.27400  247.03800    4.55400
  429.25000    0.35900    0.43400   58.80500  247.29200    4.54100
  429.50000    0.35900    0.42100   59.57800  247.45200    4.54600
  429.75000    0.34700    0.42900   60.72600  248.13500    4.55800
  430.00000    0.34400    0.45000   60.63100  248.48100    4.56300
  430.25000    0.34200    0.45300   60.10500  249.05800    4.56700
  430.50000    0.33400    0.41900   58.27900  249.41100    4.58000
  430.75000    0.32900    0.43700   53.90600  249.37900    4.60100
  431.00000    0.33500    0.41500   49.97000  249.21700    4.64800
  431.25000    0.33900    0.38100   50.80800  249.15500    4.71500
  431.50000    0.34000    0.40000   54.80800  249.22100    4.75500
  431.75000    0.33000    0.41900   57.19300  249.36800    4.78500
  432.00000    0.33600    0.40700   59.76700  249.84900    4.81700
  432.25000    0.33900    0.41700   62.03200  250.20000    4.84800
  432.50000    0.33400    0.42600   61.81500  250.66400    4.89100
  432.75000    0.33100    0.42800   58.62400  250.92700    4.90500
  433.00000    0.33600    0.42100   57.66300  250.76800    4.90800
  433.25000    0.35000    0.41200   58.37500  250.81500    4.91300
  433.50000    0.34900    0.40700   60.76300  250.24300    4.88100
  433.75000    0.33200    0.40100   63.08700  250.71300    4.84900
  434.00000    0.31800    0.40200   65.10200  250.76200    4.80800
  434.25000    0.28100    0.41600   69.60100  260.42600    4.58400
  434.50000    0.43600    0.49800   73.29200  276.18900    4.13900
  434.75000    0.47600    0.54600   75.05500  305.48900    3.65500
  435.00000    0.47600    0.57500   74.77900  325.49100    3.13800
  435.25000    0.43200    0.46300   74.56100  283.58100    3.11800
  435.50000    0.33000    0.43500   75.70800  266.68200    3.40700
  435.75000    0.29700    0.45300   77.72200  262.91200    3.74500
  436.00000    0.28100    0.45600   80.04900  258.32200    4.11600
  436.25000    0.26400    0.45500   76.17500  253.71500    4.74100
  436.50000    0.24300    0.44800   67.15300  249.33000    5.01900
  436.75000    0.26400    0.43000   60.05200  248.13600    5.02400
  437.00000    0.31000    0.40600   52.39300  248.09000    5.08600
  437.25000    0.32800    0.38400   45.41600  248.13600    5.12900
  437.50000    0.32800    0.39700   43.77500  248.60000    5.14400
  437.75000    0.31900    0.40200   43.80500  249.68700    5.17700
  438.00000    0.30200    0.41900   44.21700  250.46500    5.23100
  438.25000    0.31600    0.41600   45.66700  250.72300    5.30500
  438.50000    0.32100    0.42500   47.37200  251.18900    5.33000
  438.75000    0.32200    0.41800   48.77000  251.55300    5.30400
  439.00000    0.31900    0.40500   49.91400  251.91000    5.27900
  439.25000    0.31000    0.39500   51.80700  252.58600    5.19700
  439.50000    0.29400    0.42700   55.56100  253.46200    5.04800
  439.75000    0.27000    0.45800   60.55200  254.24400    4.86700
  440.00000    0.26000    0.46300   63.12300  254.70300    4.75500
  440.25000    0.31400    0.40700   54.53800  254.44300    4.72300
  440.50000    0.33100    0.36000   48.80000  253.16300    4.79900
  440.75000    0.33700    0.38100   44.12200  251.87300    4.89400
  441.00000    0.34400    0.43400   42.28900  250.89400    5.03800
  441.25000    0.35200    0.43800   49.39000  250.32600    5.14800
  441.50000    0.36400    0.41700   50.10700  250.15600    5.17200
  441.75000    0.35100    0.41500   48.09200  250.11700    5.21700
  442.00000    0.34900    0.40000   46.63800  250.05400    5.25000
  442.25000    0.34700    0.36900   45.55000  250.01200    5.27500
  442.50000    0.33400    0.39100   41.86000  249.86300    5.28000
  442.75000    0.32600    0.41200   42.94700  249.50300    5.26600
  443.00000    0.33100    0.42800   45.08200  248.82600    5.27000
  443.25000    0.34900    0.42700   48.95800  248.36100    5.29500
  443.50000    0.35800    0.41100   49.67200  248.11000    5.31900
  443.75000    0.35400    0.39700   43.87800  248.15500    5.35400
  444.00000    0.34400    0.40900   43.78100  248.31900    5.34000
  444.25000    0.33400    0.39800   46.91700  248.35600    5.33500
  444.50000    0.32100    0.39100   47.94200  248.21700    5.35000
  444.75000    0.31100    0.41200   44.43300  248.16000    5.36500
  445.00000    0.31800    0.41200   44.15700  248.10200    5.37900
  445.25000    0.33000    0.39300   47.28600  247.65200    5.36400
  445.50000    0.33900    0.40400   50.85200  247.37900    5.31900
  445.75000    0.34600    0.39900   46.92000  247.12700    5.29400
  446.00000    0.33900    0.40100   45.34000  247.27100    5.30900
  446.25000    0.31500    0.43500   47.16700  247.43500    5.44500
  446.50000    0.28200    0.36800   50.79100  247.90600    5.75400
  446.75000    0.23700    0.31700   45.80200  247.94900    6.18400
  447.00000    0.09500    0.15200   43.23200  247.90200    6.75900
  447.25000    0.03900    0.17900   42.94900  247.64500    7.38700
  447.50000    0.07500    0.26800   44.84900  247.27800    8.21200
  447.75000    0.18300    0.35800   46.17300  247.22500    8.79200
  448.00000    0.27400    0.38900   48.80900  247.38300    8.57300
  448.25000    0.30900    0.38000   49.46000  247.85600    7.62700
  448.50000    0.34100    0.39600   45.83200  248.00500    6.83500
  448.75000    0.35600    0.39200   42.26900  248.47400    5.87900
  449.00000    0.35000    0.38900   45.21500  248.82800    5.28900
  449.25000    0.34200    0.40200   48.09900  249.50600    5.05200
  449.50000    0.33800    0.41400   46.57800  249.46200    4.93600
  449.75000    0.33500    0.39300   45.24800  249.20200    4.92200
