~Version ---------------------------------------------------
VERS. 2.0 : CWLS log ASCII Standard -VERSION 2.0
WRAP.  NO : ONE LINE PER DEPTH STEP
~Well ------------------------------------------------------
WELL. CHEVRON MGSU 1 MITSUE 01-01 : Well_name    - WELL
LOC .         00/01-01-073-05W5/0 : Location     - LOCATION
UWI .         00/01-01-073-05W5/0 : Uwi          - UNIQUE WELL ID
ENTR.                        JAYE : Entered      - ENTERED BY
SRVC.                SCHLUMBERGER : Scn          - SERVICE COMPANY
DATE.                   23 DEC 86 : Date         - LOG DATE
STRT.M                      390.0 : top_depth    - START DEPTH
STOP.M                      650.0 : bot_depth    - STOP DEPTH
STEP.M                       0.25 : increment    - STEP LENGTH
NULL.                     -999.25 : NULL Value
~Curve Information -----------------------------------------
DEPT.M    00 001 00 00 : DEPTH        - DEPTH
DPHI.V/V  00 890 00 00 : PHID         - DENSITY POROSITY (SANDSTONE)
NPHI.V/V  00 330 00 00 : PHIN         - NEUTRON POROSITY (SANDSTONE)
GR  .API  00 310 00 00 : GR           - GAMMA RAY
CALI.MM   00 280 01 00 : CAL          - CALIPER
ILD .OHMM 00 120 00 00 : RESD         - DEEP RESISTIVITY (DIL)
~Params ----------------------------------------------------
GL  .M    583.3 : gl           - GROUND LEVEL ELEVATION
EREF.M      589 : kb           - ELEVATION OF DEPTH REFERENCE
DATM.M    583.3 : datum        - DATUM ELEVATION
TDD .M    733.4 : tdd          - TOTAL DEPTH DRILLER
RUN .       ONE : Run          - RUN NUMBER
ENG .   SIMMONS : Engineer     - RECORDING ENGINEER
WIT .      SANK : Witness      - WITNESSED BY
BASE.      S.L. : Branch       - HOME BASE OF LOGGING UNIT
MUD .  GEL CHEM : Mud_type     - MUD TYPE
MATR. SANDSTONE : Logunit      - NEUTRON MATRIX
TMAX.C       41 : BHT          - MAXIMUM RECORDED TEMPERATURE
BHTD.M    733.8 : BHTDEP       - MAXIMUM RECORDED TEMPERATURE
RMT .C       17 : MDTP         - TEMPERATURE OF MUD
MUDD.KG/M  1100 : MWT          - MUD DENSITY
NEUT.         1 : NEUTRON      - NEUTRON TYPE
RESI.         0 : RESIST       - RESISTIVITY TYPE
RM  .OHMM  2.62 : RM           - RESISTIVITY OF MUD
RMC .OHMM     0 : RMC          - RESISTIVITY OF MUD CAKE
RMF .OHMM  1.02 : RMF          - RESISTIVITY OF MUD FILTRATE
SUFT.C        0 : SUFT         - SURFACE TEMPERATURE
~Other -----------------------------------------------------
~ASCII -----------------------------------------------------
# ...
  480.00000    0.28000    0.41500   70.17800  269.66100    4.59700
  480.25000    0.24500    0.39800   72.69100  265.57900    4.44900
  480.50000    0.20200    0.40300   72.28800  261.70800    4.35400
  480.75000    0.21500    0.42400   68.53500  257.53000    4.38300
  481.00000    0.24500    0.41700   63.66900  253.84900    4.43600
  481.25000    0.26600    0.39900   59.11000  249.97500    4.55000
  481.50000    0.27400    0.39400   57.84000  250.03100    4.54500
  481.75000    0.28600    0.40600   56.50600  250.38900    4.35800
  482.00000    0.30700    0.39500   54.92500  250.65700    4.10900
  482.25000    0.31200    0.40400   55.26600  250.91000    3.96100
  482.50000    0.30300    0.42300   56.78800  251.06300    3.89100
  482.75000    0.29500    0.46800   63.01800  251.11900    3.83700
  483.00000    0.29800    0.50900   61.31400  250.85600    3.84100
  483.25000    0.30300    0.46800   56.44500  250.59800    3.92500
  483.50000    0.30900    0.44900   56.91300  250.03000    4.00200
  483.75000    0.30700    0.44200   58.49400  249.36800    4.11300
  484.00000    0.30600    0.43200   57.59400  249.20700    4.17800
  484.25000    0.30300    0.43100   56.75800  249.15300    4.25300
  484.50000    0.29100    0.44400   57.72100  249.41700    4.31400
  484.75000    0.27800    0.48100   60.10700  249.87800    4.30900
  485.00000    0.26800    0.47900   63.61000  250.04000    4.23300
  485.25000    0.27500    0.45900   69.96800  250.09600    4.17400
  485.50000    0.28900    0.44700   64.23100  250.03700    4.10900
  485.75000    0.29800    0.42800   57.81200  250.19400    4.03600
  486.00000    0.30700    0.41600   53.31900  250.46200    3.92000
  486.25000    0.31600    0.44400   53.28800  250.72000    3.81500
  486.50000    0.32500    0.44400   56.85300  251.07200    3.71300
  486.75000    0.32300    0.42700   60.36100  252.67100    3.63400
  487.00000    0.31800    0.42200   60.01500  254.08400    3.54400
  487.25000    0.31000    0.45100   58.43700  254.54800    3.51400
  487.50000    0.30300    0.45700   59.33500  254.91500    3.45200
  487.75000    0.29100    0.45700   61.22700  255.05500    3.37900
  488.00000    0.31400    0.44700   57.66200  255.11600    3.33200
  488.25000    0.31900    0.42600   58.68700  255.15800    3.26800
  488.50000    0.31600    0.44700   63.05800  255.21100    3.22200
  488.75000    0.30600    0.45600   68.17200  254.64100    3.20600
  489.00000    0.29400    0.43600   65.60100  254.17500    3.16700
  489.25000    0.28600    0.41600   59.18200  253.62000    3.18200
  489.50000    0.30200    0.40000   56.98200  253.35500    3.19100
  489.75000    0.30700    0.43600   56.33400  253.71500    3.21200
  490.00000    0.30500    0.46400   55.93200  257.27900    3.22700
  490.25000    0.30000    0.44300   56.57900  260.13200    3.28500
  490.50000    0.28800    0.43000   61.07700  261.94000    3.36300
  490.75000    0.26500    0.44700   71.52300  263.02800    3.50700
  491.00000    0.19200    0.37400   64.11400  263.59200    3.79800
  491.25000    0.14100    0.25700   61.78800  263.64100    4.14300
  491.50000    0.09100    0.24600   64.23700  262.86700    4.53700
  491.75000    0.14200    0.30600   67.24900  264.78400    4.80300
  492.00000    0.20600    0.37800   65.78800  267.73200    5.21100
  492.25000    0.25500    0.43100   58.75200  269.84200    5.50600
  492.50000    0.27600    0.43400   60.08500  271.85700    5.61500
  492.75000    0.26200    0.43400   69.74500  273.05400    5.21500
  493.00000    0.24000    0.43300   65.85400  274.24500    4.44400
  493.25000    0.23400    0.43700   65.08600  275.32900    4.04300
  493.50000    0.25700    0.44300   65.79300  276.10500    3.92000
  493.75000    0.26000    0.44800   67.74700  276.46200    3.83000
  494.00000    0.25400    0.44200   69.69800  276.61600    3.77600
  494.25000    0.25000    0.42900   70.41700  276.56400    3.76600
  494.50000    0.25200    0.41300   70.44200  276.40900    3.80500
  494.75000    0.25100    0.39600   69.79700  276.37200    3.85100
  495.00000    0.25000    0.40400   68.33500  276.31800    3.89800
  495.25000    0.25100    0.43000   65.51400  276.16600    3.96100
  495.50000    0.24800    0.45000   64.61400  276.22200    3.98700
  495.75000    0.25200    0.45700   68.24500  276.26900    4.02100
  496.00000    0.24400    0.46100   70.44400  276.72100    4.04700
  496.25000    0.25500    0.46300   70.16500  277.19800    4.08100
  496.50000    0.25100    0.45500   68.52400  277.44500    4.13200
  496.75000    0.24100    0.42500   66.32500  277.91600    4.18200
  497.00000    0.22900    0.40200   64.49400  278.48200    4.23300
  497.25000    0.22000    0.41100   63.03500  278.84000    4.28500
  497.50000    0.20900    0.43200   64.49400  279.41800    4.35400
  497.75000    0.20000    0.40400   67.13400  279.66900    4.47300
  498.00000    0.20500    0.39700   70.69700  279.83500    4.68300
  498.25000    0.22400    0.41400   71.96600  279.78900    4.99600
  498.50000    0.23200    0.42800   70.69800  279.72400    4.73600
  498.75000    0.23900    0.44100   65.95100  279.87700    4.38300
  499.00000    0.24300    0.41000   68.21700  280.65800    4.28100
  499.25000    0.22900    0.41000   68.74600  280.49800    4.21400
  499.50000    0.21500    0.42800   69.15000  279.93400    4.18600
  499.75000    0.20700    0.44400   70.91800  279.88700    4.15900
  500.00000    0.20400    0.45500   72.18600  279.82900    4.15500
  500.25000    0.19700    0.44700   72.15700  279.98700    4.16600
  500.50000    0.19100    0.43300   72.18600  279.83400    4.17800
  500.75000    0.19100    0.43100   72.58900  279.47100    4.20600
  501.00000    0.21800    0.44100   72.55800  277.77700    4.18600
  501.25000    0.21500    0.45300   71.78500  276.47800    4.15900
  501.50000    0.20500    0.46000   71.01300  276.11100    4.13200
  501.75000    0.21800    0.45900   70.23400  275.23700    4.08200
  502.00000    0.25500    0.44900   69.09100  274.46400    4.00200
  502.25000    0.27200    0.44300   67.07700  274.20300    3.85200
  502.50000    0.28300    0.43800   64.81500  274.46100    3.74800
  502.75000    0.29600    0.42300   63.04100  275.13000    3.68200
  503.00000    0.30800    0.41500   60.59700  275.49200    3.62400
  503.25000    0.31500    0.40500   59.39000  275.65700    3.58000
  503.50000    0.30800    0.39400   58.86100  276.43200    3.52400
  503.75000    0.29100    0.37600   58.39500  277.00000    3.50100
  504.00000    0.27400    0.38000   58.48700  277.25700    3.51700
  504.25000    0.26000    0.39300   59.20800  276.59400    3.56700
  504.50000    0.26700    0.40000   60.59300  275.49900    3.72800
  504.75000    0.26300    0.40800   63.54000  272.86300    3.89500
  505.00000    0.24800    0.41000   65.93400  270.02300    4.10000
  505.25000    0.24400    0.41700   66.08800  268.72900    4.24500
  505.50000    0.23600    0.42100   66.92000  267.64900    4.26500
  505.75000    0.22300    0.40100   69.31100  266.76900    4.25300
  506.00000    0.20700    0.38700   71.38900  266.61800    4.23400
  506.25000    0.19600    0.39100   72.53400  266.57200    4.22900
  506.50000    0.21400    0.41600   73.31100  266.19900    4.23300
  506.75000    0.22000    0.43400   73.53500  264.61100    4.19000
  507.00000    0.21200    0.43400   73.37400  263.31300    4.13900
  507.25000    0.20200    0.42900   71.66700  262.22700    4.10400
  507.50000    0.21800    0.44000   68.60000  261.44500    4.02400
  507.75000    0.24200    0.42800   64.04000  260.87900    3.91700
  508.00000    0.29300    0.41000   58.18200  260.72600    3.81900
  508.25000    0.32800    0.40200   56.60000  261.20300    3.68200
  508.50000    0.33400    0.41400   54.27700  262.28200    3.54300
  508.75000    0.33000    0.40200   53.43900  264.19300    3.38500
  509.00000    0.32900    0.41300   54.77200  265.16800    3.16800
  509.25000    0.33100    0.42800   56.60300  266.47000    3.07700
  509.50000    0.33300    0.44300   55.88700  267.44700    2.98300
  509.75000    0.33500    0.41800   53.43900  268.53200    2.89800
