~Version ---------------------------------------------------
VERS. 2.0 : CWLS log ASCII Standard -VERSION 2.0
WRAP.  NO : ONE LINE PER DEPTH STEP
~Well ------------------------------------------------------
WELL. CHEVRON MGSU 1 MITSUE 01-01 : Well_name    - WELL
LOC .         00/01-01-073-05W5/0 : Location     - LOCATION
UWI .         00/01-01-073-05W5/0 : Uwi          - UNIQUE WELL ID
ENTR.                        JAYE : Entered      - ENTERED BY
SRVC.                SCHLUMBERGER : Scn          - SERVICE COMPANY
DATE.                   23 DEC 86 : Date         - LOG DATE
STRT.M                      390.0 : top_depth    - START DEPTH
STOP.M                      650.0 : bot_depth    - STOP DEPTH
STEP.M                       0.25 : increment    - STEP LENGTH
NULL.                     -999.25 : NULL Value
~Curve Information -----------------------------------------
DEPT.M    00 001 00 00 : DEPTH        - DEPTH
DPHI.V/V  00 890 00 00 : PHID         - DENSITY POROSITY (SANDSTONE)
NPHI.V/V  00 330 00 00 : PHIN         - NEUTRON POROSITY (SANDSTONE)
GR  .API  00 310 00 00 : GR           - GAMMA RAY
CALI.MM   00 280 01 00 : CAL          - CALIPER
ILD .OHMM 00 120 00 00 : RESD         - DEEP RESISTIVITY (DIL)
~Params ----------------------------------------------------
GL  .M    583.3 : gl           - GROUND LEVEL ELEVATION
EREF.M      589 : kb           - ELEVATION OF DEPTH REFERENCE
DATM.M    583.3 : datum        - DATUM ELEVATION
TDD .M    733.4 : tdd          - TOTAL DEPTH DRILLER
RUN .       ONE : Run          - RUN NUMBER
ENG .   SIMMONS : Engineer     - RECORDING ENGINEER
WIT .      SANK : Witness      - WITNESSED BY
BASE.      S.L. : Branch       - HOME BASE OF LOGGING UNIT
MUD .  GEL CHEM : Mud_type     - MUD TYPE
MATR. SANDSTONE : Logunit      - NEUTRON MATRIX
TMAX.C       41 : BHT          - MAXIMUM RECORDED TEMPERATURE
BHTD.M    733.8 : BHTDEP       - MAXIMUM RECORDED TEMPERATURE
RMT .C       17 : MDTP         - TEMPERATURE OF MUD
MUDD.KG/M  1100 : MWT          - MUD DENSITY
NEUT.         1 : NEUTRON      - NEUTRON TYPE
RESI.         0 : RESIST       - RESISTIVITY TYPE
RM  .OHMM  2.62 : RM           - RESISTIVITY OF MUD
RMC .OHMM     0 : RMC          - RESISTIVITY OF MUD CAKE
RMF .OHMM  1.02 : RMF          - RESISTIVITY OF MUD FILTRATE
SUFT.C        0 : SUFT         - SURFACE TEMPERATURE
~Other -----------------------------------------------------
~ASCII -----------------------------------------------------
# ...
  570.00000    0.21700    0.36400   57.87900  336.60200    4.89800
  570.25000    0.19200    0.34600   56.48500  335.73300    5.23500
  570.50000    0.20600    0.37400   54.96700  335.46400    5.41900
  570.75000    0.23000    0.42600   54.37700  335.21100    5.35500
  571.00000    0.24600    0.43900   55.46500  335.16900    5.27900
  571.25000    0.25600    0.42900   58.84300  335.31500    5.11800
  571.50000    0.25700    0.41100   66.68600  335.46800    4.78100
  571.75000    0.24900    0.39500   61.07700  335.72400    4.43200
  572.00000    0.23300    0.38200   57.69500  336.09700    4.17800
  572.25000    0.21300    0.36400   58.78700  336.24800    4.06600
  572.50000    0.22600    0.39300   60.30500  336.30300    4.00200
  572.75000    0.23800    0.38800   60.70500  336.35500    3.99800
  573.00000    0.24500    0.39400   60.55000  336.40600    3.99400
  573.25000    0.25300    0.40700   60.15100  336.66100    4.00600
  573.50000    0.23800    0.43800   59.68300  336.91500    4.07000
  573.75000    0.20800    0.42400   59.15900  337.08100    4.23700
  574.00000    0.18700    0.41600   57.82200  336.71600    4.32200
  574.25000    0.18700    0.40900   52.58400  336.55600    4.38300
  574.50000    0.20600    0.40200   52.05600  336.82200    4.41900
  574.75000    0.22200    0.40400   57.04900  337.18500    4.48200
  575.00000    0.23400    0.40100   61.85400  337.85300    4.61300
  575.25000    0.21400    0.38600   62.44400  338.32100    4.79400
  575.50000    0.21600    0.35800   60.05900  338.88500    4.97300
  575.75000    0.21400    0.31200   58.04300  339.87100    5.10900
  576.00000    0.16700    0.27800   56.58600  340.64300    5.27900
  576.25000    0.12600    0.34100   54.94500  340.69800    5.44400
  576.50000    0.17000    0.37100   54.35200  340.54400    5.58400
  576.75000    0.21200    0.38700   54.88200  340.69400    5.57900
  577.00000    0.22700    0.40400   56.03000  341.06500    5.52300
  577.25000    0.23700    0.39400   57.30300  341.12900    5.46500
  577.50000    0.22700    0.39100   57.82700  341.37800    5.37900
  577.75000    0.21000    0.40700   56.55500  341.43200    5.35400
  578.00000    0.19100    0.39200   52.55600  341.37100    5.42000
  578.25000    0.17300    0.36900   53.95000  340.30500    5.60000
  578.50000    0.18600    0.36000   55.22500  338.57900    5.78600
  578.75000    0.19100    0.34900   55.99800  332.13200    5.94500
  579.00000    0.18700    0.34300   56.52800  327.63200    6.04000
  579.25000    0.17900    0.34800   56.31300  324.99200    6.04600
  579.50000    0.17000    0.37500   56.53000  324.12300    5.99500
  579.75000    0.15600    0.39300   60.46700  323.75900    5.80200
  580.00000    0.17700    0.40900   64.59000  323.28800    5.54300
  580.25000    0.18800    0.40100   64.62000  322.51100    5.31400
  580.50000    0.19600    0.39000   60.86900  321.23000    4.96300
  580.75000    0.20600    0.41200   59.47500  319.92800    4.72300
  581.00000    0.19600    0.40600   63.66700  316.98800    4.70100
  581.25000    0.18100    0.38700   67.78700  315.08000    4.88400
  581.50000    0.16400    0.37800   72.65100  313.79200    5.17100
  581.75000    0.17300    0.38500   78.08100  313.11600    5.36400
  582.00000    0.15900    0.38900   79.90900  312.65700    5.37800
  582.25000    0.19000    0.40500   80.80700  312.90800    5.23500
  582.50000    0.21400    0.39400   81.70900  313.58300    4.94500
  582.75000    0.21000    0.39000   82.79800  314.04800    4.72300
  583.00000    0.19700    0.40800   83.50700  312.96200    4.56200
  583.25000    0.20600    0.40100   83.04000  310.32200    4.49800
  583.50000    0.21300    0.39200   78.48300  306.75800    4.59600
  583.75000    0.20400    0.38300   75.35200  304.64000    4.93100
  584.00000    0.18400    0.35700   72.47200  303.97700    5.37900
  584.25000    0.15900    0.31400   70.08300  303.50900    5.85700
  584.50000    0.11600    0.30600   67.38400  302.21900    6.33000
  584.75000    0.09600    0.33000   66.60900  301.23400    6.75200
  585.00000    0.12000    0.32600   70.85800  300.45800    7.29700
  585.25000    0.13200    0.30800   74.79700  299.68600    7.74000
  585.50000    0.13500    0.31200   77.55700  299.63300    7.90900
  585.75000    0.16200    0.33400   76.10000  299.89200    7.69800
  586.00000    0.17900    0.37000   74.20700  300.77700    7.21600
  586.25000    0.20500    0.35300   71.76000  301.65500    6.71400
  586.50000    0.19200    0.33900   68.25400  302.43300    6.41300
  586.75000    0.18500    0.32700   68.41200  302.99200    6.38300
  587.00000    0.17800    0.35600   71.48000  303.46900    6.41300
  587.25000    0.16600    0.38700   74.30200  303.61600    6.55200
  587.50000    0.14900    0.34800   76.06900  303.76700    6.75900
  587.75000    0.13800    0.33000   71.26300  304.34300    6.97000
  588.00000    0.15000    0.34500   71.17300  304.49700    7.22900
  588.25000    0.14900    0.31800   72.62800  304.44300    7.45600
  588.50000    0.14500    0.30100   72.96900  304.59900    7.53300
  588.75000    0.13200    0.33700   73.24800  305.18000    7.48400
  589.00000    0.14300    0.40100   75.08000  305.63100    7.54700
  589.25000    0.18400    0.43200   77.90200  305.78600    7.78400
  589.50000    0.17700    0.38300   76.56900  305.63300    8.07400
  589.75000    0.15600    0.32800   71.63700  305.27300    8.20400
  590.00000    0.12200    0.31000   70.61900  304.91800    8.21000
  590.25000    0.12400    0.35100   71.76300  304.56100    8.09600
  590.50000    0.14800    0.39600   74.83700  304.18700    7.80600
  590.75000    0.16500    0.37100   77.59200  304.04800    7.44200
  591.00000    0.13600    0.35500   81.47000  304.19500    7.39400
  591.25000    0.11300    0.36800   83.17700  304.55100    7.40100
  591.50000    0.09900    0.34400   80.16600  305.33800    7.61900
  591.75000    0.08500    0.32600   73.31600  306.10800    7.99000
  592.00000    0.07200    0.32100   70.92700  307.71400    8.31800
  592.25000    0.07500    0.32800   73.00600  309.10600    8.42000
  592.50000    0.08700    0.33000   77.25500  310.49600    8.16500
  592.75000    0.11100    0.32000   80.63400  312.20200    7.62500
  593.00000    0.13700    0.31400   83.70300  313.90700    6.60800
  593.25000    0.18800    0.37200   88.13700  316.96200    5.44400
  593.50000    0.24700    0.44600   91.70300  320.52600    4.08500
  593.75000    0.33100    0.46600   93.40800  327.50100    3.11700
  594.00000    0.37000    0.47900   85.75000  339.74800    2.47400
  594.25000    0.43500    0.50700   77.53500  359.53800    1.92700
  594.50000    0.49000    0.54800   68.82300  381.81300    1.72700
  594.75000    0.58000    0.57900   62.65100  411.83800    1.62200
  595.00000    0.56200    0.57900   63.11700  412.40700    1.54900
  595.25000    0.55100    0.54800   66.00300  357.16300    1.61600
  595.50000    0.58700    0.58600   67.83200  371.16800    1.72100
  595.75000    0.52800    0.51300   78.46600  373.70700    1.86300
  596.00000    0.48300    0.48700   77.32300  347.91400    2.06300
  596.25000    0.56300    0.65200   68.11100  352.61800    2.44400
  596.50000    0.64200    0.37100   65.54400  388.54000    2.94400
  596.75000    0.36700    0.35300   67.24300  385.38400    3.64100
  597.00000    0.18000    0.36700   69.94200  361.25300    4.26500
  597.25000    0.21900    0.39000   71.95900  330.50300    5.07100
  597.50000    0.26900    0.40000   72.73700  343.27100    5.76400
  597.75000    0.31000    0.40300   73.57100  344.67100    6.04600
  598.00000    0.28000    0.39900   74.09600  340.37800    6.13200
  598.25000    0.22100    0.37200   74.69000  331.64500    6.10300
  598.50000    0.18700    0.36100   74.71700  327.35500    5.98500
  598.75000    0.21000    0.39500   75.18200  331.02200    5.91200
  599.00000    0.23800    0.40900   76.02200  337.79900    5.84000
  599.25000    0.25600    0.39100   77.60200  341.15100    5.85700
  599.50000    0.26700    0.38300   81.91300  344.21000    6.00600
  599.75000    0.24200    0.37200   77.72700  340.11900    6.34800
